SEQN,Gender,Age,Race,Month of Exam,Active Duty,Deployed,Birth Country,Citizenship,TimeUS,EduKids,EduAdult,Marital Status,Language,NumbHH,HH Gender,HH Age,HH Edu,HH Marital,HH Sp Edu,Int Weight,MEC Weight,AHH Income,FAM Income
93703,2,2,6,2,0,0,1,1,0,0,0,0,1,5,1,2,3,1,3,9246.491865,8539.731348,15,15
93704,1,2,3,1,0,0,1,1,0,0,0,0,1,4,1,2,3,1,2,37338.76834,42566.61475,15,15
93705,2,66,4,2,2,0,1,1,0,0,2,3,1,1,2,4,1,2,0,8614.571172,8338.419786,3,3
93706,1,18,6,2,2,0,1,1,0,15,0,0,1,5,1,4,3,1,2,8548.632619,8723.439814,0,0
93707,1,13,7,2,0,0,1,1,0,6,0,0,1,7,1,3,2,1,3,6769.344567,7064.60973,10,10
93708,2,66,6,2,2,0,2,1,7,0,1,1,1,2,1,4,1,1,1,13329.45059,14372.48876,6,6
93709,2,75,4,1,2,0,1,1,0,0,4,2,1,1,2,4,2,2,0,12043.38827,12277.55666,2,2
93710,2,0,3,2,0,0,1,1,0,0,0,0,1,3,1,2,3,1,3,16418.29842,16848.02012,15,15
93711,1,56,6,2,2,0,2,1,6,0,5,1,1,3,1,3,3,1,3,11178.26011,12390.91972,15,15
93712,1,18,1,2,2,0,2,2,5,12,0,0,1,4,2,3,1,2,0,29040.49656,30336.65432,4,4
93713,1,67,3,1,1,1,1,1,0,0,3,3,1,1,1,4,2,2,0,174806.5752,166841.6607,6,6
93714,2,54,4,2,2,0,1,1,0,0,4,1,1,3,1,3,2,1,2,15209.43864,15479.5812,7,7
93715,1,71,7,2,2,0,1,1,0,0,3,1,1,5,1,4,2,1,2,9402.255687,9250.904672,8,8
93716,1,61,6,1,2,0,2,1,7,0,5,1,1,3,1,4,3,1,3,11247.54342,11581.23354,15,15
93717,1,22,3,2,1,2,1,1,0,0,3,5,1,2,1,2,0,3,0,53249.36797,60117.93607,0,4
93718,1,45,4,1,2,0,1,1,0,0,3,5,1,7,2,3,2,2,0,20257.01146,19647.25054,10,10
93719,2,13,3,2,0,0,1,1,0,6,0,0,1,3,2,2,2,2,0,67836.64998,69916.126,14,14
93720,2,1,4,1,0,0,1,1,0,0,0,0,1,3,2,2,2,1,0,8985.688512,9983.09634,14,14
93721,2,60,1,1,2,0,2,1,8,0,1,1,2,2,2,4,1,1,0,8224.936565,8589.051335,8,8
93722,2,60,3,1,2,0,2,1,5,0,4,3,1,1,2,4,2,2,0,132077.5762,126309.8233,6,6
93723,1,64,3,1,2,0,1,1,0,0,5,1,1,2,1,4,3,1,3,230745.7168,229129.2369,9,9
93724,2,5,4,1,0,0,1,1,0,0,0,0,1,7,2,4,1,1,2,11426.38036,12195.68266,4,4
93725,2,9,3,1,0,0,1,1,0,2,0,0,1,4,1,3,3,1,3,125854.5201,139773.9754,15,15
93726,2,67,1,1,2,0,2,1,8,0,1,2,2,1,2,4,1,2,0,5239.61127,5435.070518,5,5
93727,1,70,6,2,2,0,2,1,8,0,5,1,1,2,1,4,3,1,3,19991.60922,22181.21286,15,15
93728,1,53,4,1,2,0,1,1,0,0,5,1,1,2,1,3,3,1,3,32014.31798,31532.90451,15,15
93729,1,42,4,1,2,0,1,1,0,0,2,5,1,2,2,2,2,1,0,11759.6246,12103.88335,6,3
93730,1,57,2,2,2,0,2,1,9,0,2,2,2,1,1,3,1,2,0,27340.92515,28532.93808,77,77
93731,1,20,1,2,2,0,1,1,0,0,4,5,1,5,1,3,2,1,2,27213.90966,28081.13387,15,15
93732,1,72,3,2,2,0,1,1,0,0,3,3,1,1,1,4,2,2,0,11725.33874,12439.30105,3,3
93733,2,11,3,1,0,0,1,1,0,5,0,0,1,7,1,2,2,1,2,17265.99925,19070.07224,9,9
93734,1,13,3,0,0,0,1,1,0,7,0,0,1,3,2,3,2,1,0,20517.63387,0,10,10
93735,1,52,2,1,2,0,2,2,7,0,1,1,2,3,2,3,1,1,1,10609.72893,10706.38156,2,2
93736,1,11,1,2,0,0,1,1,0,5,0,0,1,4,1,2,2,1,2,19019.07867,19236.07849,12,12
93737,1,8,4,1,0,0,1,1,0,3,0,0,1,3,2,2,2,3,0,14253.76103,15418.48746,1,1
93738,1,26,2,2,2,0,1,1,0,0,4,5,1,6,1,2,2,1,1,59333.08167,59094.0994,15,15
93739,2,5,1,1,0,0,1,1,0,0,0,0,2,4,1,2,2,1,2,26762.13926,28437.9916,8,8
93740,1,72,4,1,2,0,1,1,0,0,2,3,1,1,1,4,1,2,0,7568.712315,7721.816727,2,2
93741,2,9,6,2,0,0,1,1,0,3,0,0,1,5,1,3,3,1,3,9761.107742,10425.89603,15,15
93742,1,72,4,2,1,1,1,1,0,0,5,2,1,1,1,4,3,2,0,13375.69547,14084.02631,7,7
93743,1,61,3,2,2,0,1,1,0,0,1,6,1,2,2,4,0,2,0,102288.7345,110345.6781,12,8
93744,2,10,3,2,0,0,1,1,0,3,0,0,1,3,1,3,2,2,0,32424.0034,35375.37446,7,7
93745,1,5,6,2,0,0,1,1,0,0,0,0,1,5,1,3,2,1,2,9642.926752,9784.573587,4,4
93746,2,25,4,1,2,0,1,1,0,0,5,5,1,1,2,2,3,3,0,27134.67477,28801.6359,7,7
93747,2,13,2,2,0,0,1,1,0,7,0,0,1,4,2,2,1,3,0,37624.88114,39261.72382,6,6
93748,1,0,1,1,0,0,1,1,0,0,0,0,1,3,2,2,2,1,0,9961.521606,12859.36146,9,9
93749,2,1,3,2,0,0,1,1,0,0,0,0,1,7,1,2,1,1,2,12961.76533,14360.42992,3,3
93750,2,52,6,0,2,0,2,1,6,0,5,1,1,2,1,3,3,1,3,13827.3258,0,15,15
93751,2,7,1,1,0,0,1,1,0,1,0,0,2,6,2,2,1,1,1,39067.0251,49657.57262,1,1
93752,2,73,3,2,2,0,1,1,0,0,4,2,1,3,2,2,2,3,0,52415.99801,54611.19864,14,8
93753,2,10,3,1,0,0,1,1,0,4,0,0,1,5,2,3,2,1,2,26120.03237,27796.74137,10,10
93754,1,72,2,2,2,0,2,1,7,0,3,1,2,2,1,4,2,1,2,31838.40499,36811.17653,3,3
93755,2,26,4,1,2,0,1,1,0,0,4,5,1,1,2,2,2,3,0,30922.12632,33269.92737,6,6
93756,2,64,4,1,2,0,1,1,0,0,5,1,1,3,1,4,1,1,3,6437.797585,6735.524015,0,0
93757,1,63,3,2,1,1,1,1,0,0,4,1,1,2,1,4,2,1,2,96421.25084,99269.9578,7,7
93758,2,55,3,1,2,0,1,1,0,0,1,1,1,2,2,3,1,1,1,22936.83184,23938.50887,3,3
93759,1,60,7,2,2,0,2,1,6,0,5,1,1,4,1,4,3,1,3,199178.5816,212848.2513,12,12
93760,2,54,1,2,2,0,2,2,5,0,1,5,2,2,2,3,1,3,0,23824.55442,23665.85543,0,0
93761,1,44,6,2,2,0,2,1,3,0,4,1,1,4,1,3,2,1,1,18939.45047,19910.0932,6,6
93762,2,74,1,1,2,0,1,1,0,0,3,2,1,1,2,4,2,2,0,23713.14786,26249.58636,3,3
93763,1,40,3,2,1,1,1,1,0,0,3,1,1,4,2,3,2,1,2,103670.3567,100887.8594,14,14
93764,2,1,3,2,0,0,1,1,0,0,0,0,1,3,2,2,1,1,1,12885.77253,12819.55862,6,6
93765,1,19,3,1,2,0,1,1,0,13,0,0,1,7,2,2,2,1,2,74509.25794,75727.27159,14,14
93766,2,36,2,1,2,0,2,2,4,0,2,3,2,4,2,2,1,2,0,16414.38756,18420.18991,3,3
93767,1,61,2,1,2,0,2,1,6,0,5,1,2,3,1,4,3,1,2,24569.84483,25687.53347,5,5
93768,1,80,3,2,1,2,1,1,0,0,3,1,1,2,1,4,2,1,2,14720.13393,20661.28195,8,8
93769,1,6,7,2,0,0,1,1,0,0,0,0,1,4,2,3,3,1,2,9054.065721,9479.40988,15,15
93770,1,55,2,1,2,0,2,1,6,0,1,5,2,1,1,3,1,3,0,16429.69588,16779.08407,2,2
93771,1,3,6,2,0,0,1,1,0,0,0,0,1,7,2,2,1,1,2,9642.926752,9784.573587,9,9
93772,2,55,4,2,2,0,1,1,0,0,3,5,1,1,2,3,2,3,0,20129.83736,20200.60933,2,2
93773,1,69,3,2,1,1,1,1,0,0,4,3,1,2,1,4,2,2,0,21085.17247,22749.07155,2,2
93774,2,41,3,1,2,0,2,1,2,0,4,1,1,3,1,3,3,1,2,232377.0527,230877.9955,14,14
93775,2,47,6,1,2,0,1,1,0,0,4,1,1,2,2,3,0,3,0,12816.63374,13332.11835,12,8
93776,2,32,4,1,2,0,1,1,0,0,3,5,1,7,2,3,2,2,0,22486.96769,21739.54544,10,10
93777,2,72,4,1,2,0,1,1,0,0,4,3,1,1,2,4,2,2,0,13094.20763,13874.87226,7,7
93778,2,19,4,2,2,0,1,1,0,15,0,0,1,3,1,4,2,1,2,21031.99623,22288.19814,15,15
93779,2,10,7,1,0,0,1,1,0,4,0,0,1,6,1,3,0,1,0,5688.852758,5958.516219,15,15
93780,2,46,7,2,2,0,1,1,0,0,3,1,1,4,1,3,1,1,2,39418.72937,43102.56241,6,6
93781,1,32,2,2,2,0,2,2,4,0,1,5,2,1,1,2,1,3,0,26699.48621,28591.32997,5,5
93782,2,25,4,1,2,0,1,1,0,0,4,5,1,3,2,3,3,2,0,35096.11645,36032.55247,14,14
93783,2,21,2,2,2,0,2,2,3,0,3,5,2,5,2,3,1,1,1,56051.72405,59166.30089,3,3
93784,2,2,3,2,0,0,1,1,0,0,0,0,1,5,2,4,1,2,0,16932.90455,17308.44486,4,4
93785,2,80,3,1,2,0,1,1,0,0,5,2,1,1,2,4,3,2,0,51276.38451,55860.33703,10,10
93786,1,0,4,0,0,0,1,1,0,0,0,0,1,3,2,2,1,3,0,3933.059349,0,3,3
93787,2,13,7,2,0,0,1,1,0,7,0,0,1,7,1,2,2,1,1,11990.76474,12763.44156,2,2
93788,2,66,3,1,2,0,1,1,0,0,5,3,1,1,2,4,3,2,0,151138.8882,149491.3776,15,15
93789,2,34,3,2,2,0,1,1,0,0,5,5,1,1,2,2,3,3,0,260717.5563,269609.4338,14,14
93790,2,5,7,1,0,0,1,1,0,0,0,0,1,5,1,3,3,1,3,9956.353358,9091.396647,15,15
93791,1,20,7,1,2,0,1,1,0,0,4,5,1,3,1,3,2,1,2,18005.92075,23976.31088,9,9
93792,2,31,2,1,2,0,1,1,0,0,4,3,1,1,2,2,2,2,0,31023.79589,34146.69449,1,1
93793,1,12,1,1,0,0,1,1,0,6,0,0,2,5,2,3,1,1,1,17613.38367,18248.67867,13,13
93794,2,62,6,1,2,0,2,1,8,0,4,4,1,3,1,2,3,1,3,11511.94055,13092.2708,15,15
93795,1,64,4,2,1,1,1,1,0,0,2,1,1,5,1,4,1,1,2,4769.614244,4579.581002,10,10
93796,1,71,3,1,1,2,1,1,0,0,3,2,1,1,1,4,2,2,0,15858.45931,17184.24514,4,4
93797,2,52,3,2,2,0,1,1,0,0,5,1,1,2,1,3,2,1,3,126587.0752,122796.6751,14,14
93798,2,61,4,2,2,0,1,1,0,0,3,3,1,4,2,4,0,1,0,27038.25106,26414.91812,0,0
93799,1,41,4,2,2,0,1,1,0,0,3,4,1,2,1,3,2,2,0,45775.95159,46502.33454,14,14
93800,2,80,3,2,2,0,1,1,0,0,5,3,1,1,2,4,3,2,0,26840.24458,30055.19866,6,6
93801,1,59,2,2,2,0,2,1,6,0,5,1,1,2,2,3,3,1,3,38096.30129,41266.91877,15,15
93802,2,2,3,2,0,0,1,1,0,0,0,0,1,3,2,3,2,2,0,12241.4839,12178.58069,2,2
93803,1,12,4,2,0,0,1,1,0,6,0,0,1,6,2,2,2,1,2,17766.93355,19062.1601,8,8
93804,1,1,3,2,0,0,1,1,0,0,0,0,1,4,1,2,2,1,0,18061.08048,18682.845,5,5
93805,2,64,3,2,2,0,1,1,0,0,4,2,1,2,1,4,2,1,0,45212.47451,47363.43254,12,10
93806,1,44,6,1,2,0,2,2,2,0,5,1,1,7,1,3,3,1,2,12687.3611,13210.56128,8,8
93807,2,13,1,1,0,0,1,1,0,7,0,0,1,4,1,3,2,1,3,20418.82814,20841.87827,15,15
93808,1,14,3,1,0,0,1,1,0,8,0,0,1,7,2,2,2,3,0,34830.9607,42963.9316,15,15
93809,1,1,7,2,0,0,1,1,0,0,0,0,1,4,1,2,2,1,3,12370.42895,13733.64212,15,15
93810,1,13,4,1,0,0,2,2,2,7,0,0,1,4,1,1,1,0,0,19642.34375,20206.9912,0,0
93811,1,24,6,2,2,0,2,2,3,0,4,5,1,3,2,2,2,3,0,19204.13184,24977.78781,9,9
93812,1,67,3,2,2,0,1,1,0,0,5,1,1,2,2,4,3,1,3,251030.6852,276495.9554,14,14
93813,2,42,1,1,2,0,2,2,99,0,1,4,2,6,2,3,1,2,0,24105.62847,23420.86771,7,7
93814,2,41,4,2,2,0,2,1,6,0,5,1,1,5,1,3,2,1,3,21044.762,27756.33097,15,15
93815,2,32,7,2,2,0,1,1,0,0,4,5,1,2,2,2,2,3,0,11095.7904,10948.20534,4,4
93816,2,80,2,2,2,0,2,2,1,0,1,1,2,2,2,4,1,1,1,14551.92152,15983.14949,1,1
93817,1,55,6,1,2,0,2,2,2,0,5,1,1,3,1,3,3,1,3,11106.04594,12353.30324,15,15
93818,1,14,1,1,0,0,1,1,0,9,0,0,1,4,1,3,3,1,0,22838.58557,23556.90596,14,14
93819,2,63,4,2,2,0,2,1,1,0,3,2,1,5,2,3,2,0,0,21778.56069,21208.65337,6,6
93820,2,11,4,1,0,0,1,1,0,6,0,0,1,5,2,2,2,1,2,18738.26927,19157.06109,8,8
93821,2,16,6,1,0,0,1,1,0,10,0,0,1,7,1,4,1,1,1,17699.57881,20517.1818,7,7
93822,2,6,1,1,0,0,1,1,0,0,0,0,2,4,2,2,2,1,0,23322.08396,23873.26611,7,7
93823,2,58,2,1,2,0,1,1,0,0,5,1,1,2,2,3,3,1,2,21745.67446,20436.01785,13,13
93824,2,52,2,2,2,0,2,2,5,0,4,1,2,6,1,2,0,1,2,41341.30317,44809.69614,0,0
93825,1,74,3,2,2,0,1,1,0,0,2,2,1,2,1,4,1,2,0,5801.53496,7992.562066,6,6
93826,2,74,3,0,2,0,1,1,0,0,4,2,2,2,1,3,1,2,0,36480.87884,0,7,7
93827,2,68,6,1,2,0,2,1,7,0,3,1,1,3,1,4,3,1,2,15014.4816,15873.3164,0,0
93828,2,2,3,1,0,0,1,1,0,0,0,0,1,3,2,2,2,1,2,13972.25036,15420.92076,6,6
93829,2,38,4,1,2,0,1,1,0,0,5,1,1,3,1,3,2,1,3,52037.80666,52561.26384,15,15
93830,1,67,4,2,1,1,1,1,0,0,4,1,1,2,1,4,2,1,3,4668.798603,5139.678134,14,14
93831,1,61,2,2,2,0,1,1,0,0,1,6,1,2,2,4,0,2,0,10040.79406,10839.56451,6,6
93832,1,63,6,1,2,0,2,1,7,0,4,1,1,3,1,4,2,1,3,10645.96539,11321.4238,15,15
93833,1,6,3,2,0,0,1,1,0,0,0,0,1,4,2,3,3,2,0,26363.36084,27645.21712,14,14
93834,2,48,3,2,2,0,1,1,0,0,2,1,1,3,1,3,2,1,1,22570.56583,24586.089,2,2
93835,1,27,4,0,2,0,1,1,0,0,5,5,1,5,1,3,0,2,0,30994.76781,0,0,0
93836,2,13,1,2,0,0,1,1,0,7,0,0,1,4,2,2,2,1,2,34208.2568,35664.47799,10,10
93837,2,35,3,2,2,0,1,1,0,0,3,5,1,3,2,2,2,3,0,37632.32417,37121.36641,5,5
93838,1,5,1,2,0,0,1,1,0,0,0,0,1,7,2,3,1,2,0,27025.54371,29406.15952,0,0
93839,2,50,3,1,2,0,1,1,0,0,4,1,1,4,2,3,2,1,2,171159.8655,190727.3423,0,0
93840,1,47,6,1,2,0,2,1,5,0,5,1,1,3,2,3,3,1,3,13521.11483,13482.69236,15,15
93841,2,48,7,2,2,0,1,1,0,0,5,1,1,2,2,3,3,1,0,111831.771,137651.3269,15,15
93842,1,2,4,2,0,0,1,1,0,0,0,0,1,2,2,2,3,3,0,5214.591788,5731.502769,4,4
93843,2,42,2,2,2,0,1,1,0,0,5,1,1,5,1,3,3,1,3,69827.10174,72835.93957,15,15
93844,1,6,3,1,0,0,1,1,0,1,0,0,1,3,2,2,1,3,0,25584.74674,27109.54486,1,1
93845,2,28,3,1,2,0,1,1,0,0,3,5,1,7,2,2,2,3,0,136035.102,137884.5095,14,14
93846,2,29,4,2,2,0,1,1,0,0,4,5,1,3,2,2,2,3,0,21170.64332,22754.13049,4,4
93847,2,43,1,1,2,0,1,1,0,0,2,6,2,4,2,3,1,1,1,25783.0634,25280.00699,1,1
93848,1,62,4,1,2,0,1,1,0,0,3,3,1,2,1,4,1,3,0,11969.59579,12359.195,4,4
93849,2,40,3,2,2,0,1,1,0,0,5,1,1,4,1,3,3,1,3,226200.716,253429.4716,15,15
93850,2,74,4,2,2,0,2,1,8,0,3,4,1,5,2,2,3,3,0,24256.02577,23543.44822,15,15
93851,2,74,3,2,2,0,1,1,0,0,3,1,1,2,1,4,2,1,2,85525.51305,95014.14106,14,14
93852,2,45,7,1,2,0,1,1,0,0,4,6,1,2,2,3,2,1,0,15432.97567,15767.03106,10,7
93853,1,50,1,1,2,0,2,2,5,0,1,5,2,7,2,3,1,1,0,23876.35799,24293.02108,4,4
93854,1,0,3,1,0,0,1,1,0,0,0,0,1,3,2,2,3,1,3,15351.05482,15152.01007,14,14
93855,1,71,3,2,1,1,1,1,0,0,4,5,1,1,1,4,2,3,0,24893.87758,34530.3655,8,8
93856,1,66,4,2,2,0,1,1,0,0,4,1,1,4,1,4,2,1,0,18969.66741,19643.96429,9,9
93857,2,3,3,1,0,0,1,1,0,0,0,0,1,4,2,3,2,1,2,26816.9637,34615.50653,8,8
93858,2,19,7,1,2,0,1,1,0,15,0,0,1,5,2,3,2,1,2,9691.144203,9789.309548,2,2
93859,1,73,4,2,1,1,2,1,8,0,5,1,1,4,1,4,3,1,3,8870.274678,9692.695101,15,15
93860,2,39,1,0,2,0,2,2,4,0,3,6,2,3,1,3,2,2,0,50634.02145,0,0,0
93861,1,76,3,2,1,1,1,1,0,0,2,1,1,2,1,4,1,1,0,54542.10655,61180.74078,9,9
93862,1,2,1,1,0,0,1,1,0,0,0,0,1,7,2,2,2,1,0,12991.80483,14020.33336,14,14
93863,1,50,6,2,2,0,2,1,4,0,3,1,1,4,1,3,2,1,2,18828.50278,19227.68447,77,77
93864,2,12,2,2,0,0,2,2,1,6,0,0,2,5,1,3,1,1,1,28472.37559,29477.23979,1,1
93865,1,0,3,2,0,0,1,1,0,0,0,0,1,5,2,2,2,1,3,7981.389783,7515.403282,15,15
93866,1,26,3,1,1,1,1,1,0,0,3,5,1,2,1,2,2,3,0,100821.5058,125047.3918,12,99
93867,2,2,1,1,0,0,1,1,0,0,0,0,1,7,1,2,2,1,2,15691.6874,16878.49809,15,15
93868,1,68,4,2,2,0,1,1,0,0,2,1,1,4,1,4,1,1,2,10941.42384,11104.76444,77,77
93869,1,80,3,2,1,2,1,1,0,0,5,5,1,3,2,4,1,2,0,17672.85483,20486.52877,12,4
93870,2,20,3,2,2,0,1,1,0,0,4,5,1,6,2,3,3,1,2,69137.68897,70964.05969,15,15
93871,2,55,1,1,2,0,1,1,0,0,2,3,1,2,2,3,1,2,0,14430.31686,14304.85578,3,3
93872,1,1,1,0,0,0,1,1,0,0,0,0,1,6,2,2,2,1,0,25721.83567,0,0,0
93873,2,16,1,2,0,0,1,1,0,9,0,0,1,6,2,2,1,1,0,24373.29649,25365.38387,3,3
93874,2,8,1,1,0,0,1,1,0,1,0,0,2,7,2,2,2,1,0,24853.80608,25055.59225,13,13
93875,1,37,4,1,2,0,1,1,0,0,2,5,1,1,1,2,1,3,0,21754.83353,22498.80566,2,2
93876,1,10,1,1,0,0,1,1,0,4,0,0,1,4,2,2,2,3,0,14872.22697,15097.96512,4,4
93877,1,64,3,1,2,0,1,1,0,0,3,1,1,3,2,4,2,2,0,36318.62368,35944.55957,8,8
93878,2,59,4,2,2,0,1,1,0,0,3,3,1,1,2,3,2,2,0,9357.462676,10142.93381,2,2
93879,2,7,3,1,0,0,1,1,0,1,0,0,1,5,2,2,2,3,0,27064.09532,29102.8528,2,2
93880,2,5,3,2,0,0,1,1,0,0,0,0,1,5,2,2,2,1,2,25743.12893,25588.25102,8,8
93881,2,8,1,1,0,0,1,1,0,2,0,0,2,6,2,2,1,1,0,35099.20786,35200.19142,5,5
93882,1,26,6,0,2,0,1,1,0,0,4,5,1,3,1,2,0,1,3,38244.91431,0,99,99
93883,2,30,4,1,2,0,1,1,0,0,4,5,1,6,2,2,2,3,0,20992.94581,22161.14405,13,13
93884,1,19,3,2,2,0,1,1,0,15,0,0,1,5,2,3,3,1,3,61383.46944,65404.6837,99,99
93885,1,8,4,1,0,0,1,1,0,1,0,0,1,7,2,2,2,3,0,12227.12009,13429.78913,14,14
93886,1,78,3,0,2,0,1,1,0,0,4,3,1,1,1,4,2,2,0,9284.747729,0,6,6
93887,1,63,3,2,2,0,1,1,0,0,4,3,1,1,1,4,2,2,0,16544.71984,17784.04666,4,4
93888,2,37,3,1,2,0,1,1,0,0,4,1,1,7,2,2,2,1,3,10205.56999,11574.40905,15,15
93889,2,8,4,0,0,0,1,1,0,2,0,0,1,5,2,2,2,1,0,16817.02819,0,4,4
93890,1,27,6,1,2,0,1,1,0,0,5,5,1,5,1,3,0,1,2,14312.65442,14834.21084,15,15
93891,2,56,1,1,2,0,2,2,99,0,3,1,2,7,1,3,1,1,2,27487.44981,29846.70737,99,99
93892,2,80,3,1,2,0,1,1,0,0,3,2,1,1,2,4,2,2,0,31602.76373,36342.5743,5,5
93893,1,55,4,2,1,2,1,1,0,0,4,1,1,6,1,3,2,1,3,8856.272285,9117.478052,15,15
93894,2,66,3,1,2,0,1,1,0,0,1,3,1,1,2,4,1,2,0,21371.58145,23658.07893,13,13
93895,1,40,3,1,2,0,1,1,0,0,5,1,1,3,1,3,3,1,3,125947.63,124293.6331,15,15
93896,1,10,3,2,0,0,1,1,0,4,0,0,1,7,2,2,2,1,0,14551.31875,15672.56782,9,9
93897,2,10,3,2,0,0,1,1,0,3,0,0,1,2,2,3,2,2,0,19279.41137,20593.45868,5,5
93898,1,5,4,2,0,0,1,1,0,0,0,0,1,7,2,3,2,2,0,11029.18157,11207.73449,9,9
93899,1,67,3,2,2,0,1,1,0,0,2,1,1,2,1,4,1,1,1,24078.27692,26353.92395,6,6
93900,1,48,1,1,2,0,2,2,5,0,1,1,2,5,1,3,1,1,1,55207.39417,57805.89755,7,7
93901,2,12,1,2,0,0,1,1,0,5,0,0,1,6,1,2,1,1,2,13043.77632,13314.02549,7,7
93902,2,24,1,1,2,0,2,2,1,0,2,1,2,7,1,3,1,1,0,23811.47559,27768.67727,99,99
93903,1,62,3,2,1,1,1,1,0,0,3,1,1,2,1,4,2,1,2,28284.75437,29226.8689,5,5
93904,1,10,7,2,0,0,1,1,0,4,0,0,1,4,1,3,0,1,3,21951.71039,24214.83497,15,15
93905,1,15,6,1,0,0,1,1,0,10,0,0,1,4,1,3,3,1,3,5321.300654,5400.227225,14,14
93906,1,39,1,1,2,0,1,1,0,0,2,1,1,5,1,2,1,1,2,30558.85998,38126.03337,15,15
93907,2,41,4,1,2,0,1,1,0,0,3,6,1,4,2,3,2,1,0,49549.3012,50307.15154,15,6
93908,2,20,6,1,2,0,2,7,77,0,3,5,1,7,2,3,2,2,0,34601.35839,34390.0991,12,77
93909,1,41,6,2,2,0,2,1,5,0,5,5,1,1,1,3,3,3,0,13037.89911,13051.88851,15,15
93910,1,80,3,0,1,1,1,1,0,0,5,1,1,2,2,4,2,1,3,59600.39178,0,0,0
93911,1,6,3,1,0,0,1,1,0,0,0,0,1,5,2,3,2,1,0,50385.44417,53789.40482,15,15
93912,2,25,4,1,2,0,1,1,0,0,4,1,1,5,1,2,2,1,2,41682.9474,43609.57369,0,0
93913,2,40,6,1,2,0,2,2,4,0,5,1,1,4,1,3,3,1,3,16016.21711,16056.01988,12,12
93914,1,41,6,2,2,0,2,1,7,0,4,1,1,4,1,3,2,1,2,15951.99152,17311.74767,15,15
93915,1,34,3,2,2,0,2,1,7,0,3,5,1,3,1,2,2,3,0,80919.08558,77545.677,15,15
93916,1,28,6,1,2,0,2,2,3,0,5,5,1,2,1,2,3,3,0,15104.70666,15955.88716,12,12
93917,1,14,3,1,0,0,1,1,0,8,0,0,1,3,2,2,1,0,0,27490.22052,27834.10903,6,6
93918,1,36,3,2,2,0,1,1,0,0,3,6,1,4,2,2,2,1,2,39038.20844,38143.24437,7,7
93919,2,8,3,1,0,0,1,1,0,1,0,0,1,6,2,2,3,1,3,31719.24353,35033.49311,15,15
93920,2,61,6,1,2,0,2,1,8,0,5,1,1,2,1,4,3,1,3,11741.51993,12572.64327,15,15
93921,2,7,3,2,0,0,1,1,0,1,0,0,1,3,2,3,1,1,0,18860.29373,20692.00368,7,5
93922,1,11,2,2,0,0,2,9,2,4,0,0,2,3,2,2,1,3,0,12207.07183,14603.22252,1,1
93923,1,52,3,2,2,0,1,1,0,0,3,1,1,5,2,3,2,1,2,150314.2614,155035.5825,0,0
93924,2,70,3,1,2,0,1,1,0,0,4,3,1,1,2,4,2,2,0,28180.84145,29350.96911,3,3
93925,2,13,4,2,0,0,1,1,0,8,0,0,1,5,1,3,3,1,2,12937.56041,13324.48778,15,15
93926,1,31,7,2,2,0,1,1,0,0,3,5,1,4,1,4,1,1,1,121844.4233,125800.888,8,8
93927,2,54,3,2,2,0,1,1,0,0,2,1,1,4,2,3,1,1,2,23181.30923,29781.40372,6,6
93928,1,11,3,2,0,0,1,1,0,5,0,0,1,4,1,3,0,1,0,36727.1104,49694.21592,12,12
93929,2,35,3,1,2,0,1,1,0,0,5,1,1,3,1,2,0,1,3,126779.2019,124429.4554,15,15
93930,1,80,2,2,2,0,2,1,8,0,1,6,2,3,2,3,0,0,0,12491.03424,13745.24928,0,0
93931,1,24,7,1,2,0,1,1,0,0,2,1,1,6,1,2,1,1,2,26125.06561,24815.11224,7,7
93932,2,54,6,1,2,0,2,1,6,0,5,1,1,4,1,4,3,1,3,14353.91145,14389.58312,15,15
93933,2,1,4,0,0,0,1,1,0,0,0,0,1,4,2,3,2,3,0,7943.548173,0,4,4
93934,2,0,3,2,0,0,1,1,0,0,0,0,1,4,1,2,3,1,3,16323.63044,15390.06804,14,14
93935,1,39,1,1,2,0,2,2,5,0,1,6,2,4,2,3,1,1,1,37218.56022,38849.71483,2,2
93936,1,0,3,2,0,0,1,1,0,0,0,0,1,4,1,2,2,1,2,11102.46363,10691.18289,14,14
93937,1,30,3,2,1,1,1,1,0,0,4,6,1,2,1,2,2,1,2,65415.16601,65454.83195,9,9
93938,2,18,7,1,2,0,1,1,0,11,0,0,1,3,1,3,3,1,2,93285.21925,97243.9771,10,10
93939,2,40,4,1,2,0,1,1,0,0,4,5,1,2,2,3,2,3,0,14496.76872,14689.14255,9,7
93940,1,50,3,2,2,0,1,1,0,0,3,1,1,6,2,3,3,1,2,225977.9817,248583.3583,15,15
93941,1,42,7,1,2,0,1,1,0,0,5,1,1,7,2,2,2,1,3,11312.61142,11409.42889,15,15
93942,2,52,3,2,2,0,1,1,0,0,5,1,1,3,1,3,2,1,3,238440.5519,259474.7556,15,15
93943,1,80,3,0,2,0,1,1,0,0,5,2,1,1,1,4,3,2,0,29092.06708,0,14,14
93944,2,2,1,2,0,0,1,1,0,0,0,0,1,2,2,2,3,3,0,16890.52088,16763.48566,5,5
93945,1,66,4,2,2,0,1,1,0,0,2,5,1,2,1,4,1,3,0,8002.337233,8024.126844,5,4
93946,1,22,1,2,2,0,1,1,0,0,3,6,1,2,1,2,2,1,2,37412.94647,42210.23606,6,6
93947,2,53,6,2,2,0,2,1,4,0,5,1,1,2,1,3,2,1,3,21136.55581,26195.87082,7,7
93948,1,13,4,1,0,0,1,1,0,6,0,0,1,7,2,2,2,3,0,17790.20562,18583.26543,14,1
93949,2,49,6,2,2,0,2,2,2,0,4,1,1,2,2,3,2,1,0,6454.262125,6925.672043,15,15
93950,1,30,2,1,2,0,1,1,0,0,3,1,1,6,2,2,2,3,0,61391.45067,64177.63867,15,15
93951,2,0,4,1,0,0,1,1,0,0,0,0,1,5,2,3,2,1,0,7608.854901,7098.862128,6,6
93952,2,34,3,2,2,0,1,1,0,0,4,1,1,4,2,2,2,1,2,73859.91176,73404.08388,6,6
93953,1,26,7,1,2,0,2,1,6,0,3,5,1,5,1,2,2,3,0,13631.28529,14156.87753,9,9
93954,1,24,3,2,2,0,2,1,3,0,4,5,1,5,1,3,1,1,2,235948.8027,258942.6309,7,7
93955,2,66,1,1,2,0,1,1,0,0,3,3,1,1,2,4,2,2,0,12730.2849,13884.28917,3,3
93956,1,8,3,0,0,0,1,1,0,1,0,0,1,5,1,3,3,1,3,45559.01329,0,15,15
93957,2,41,3,2,2,0,1,1,0,0,4,1,1,4,2,3,2,1,0,29161.75672,35987.69597,8,8
93958,2,2,4,1,0,0,1,1,0,0,0,0,1,7,1,2,2,1,2,6536.969926,7241.461835,9,9
93959,2,61,4,1,2,0,1,1,0,0,4,2,1,3,2,4,1,2,0,17604.34333,17949.59636,6,6
93960,1,60,4,2,1,1,1,1,0,0,4,1,1,2,1,4,2,1,3,8073.23214,8607.920304,3,3
93961,2,54,6,0,2,0,2,1,7,0,5,1,1,3,2,3,3,1,2,16400.96625,0,15,15
93962,1,0,3,2,0,0,1,1,0,0,0,0,1,3,1,2,3,1,3,16662.56714,17064.69764,15,15
93963,1,80,3,2,1,1,1,1,0,0,2,1,1,2,1,4,1,1,2,5851.260945,8485.369119,6,6
93964,1,52,6,2,2,0,2,1,6,0,5,1,1,3,1,3,3,1,3,12519.33068,12746.19743,15,15
93965,2,30,2,1,2,0,2,2,2,0,5,1,1,2,1,2,2,1,3,68732.33403,66978.91405,10,10
93966,1,0,3,2,0,0,1,1,0,0,0,0,1,7,1,3,2,1,2,10305.47172,9703.795718,10,10
93967,1,1,3,1,0,0,1,1,0,0,0,0,2,4,1,2,1,1,2,29938.4896,32106.40719,4,4
93968,1,57,4,2,2,0,1,1,0,0,2,6,1,2,2,3,1,1,0,14954.7901,14397.50283,10,7
93969,2,33,3,2,2,0,1,1,0,0,5,4,1,4,2,2,3,2,0,61718.25786,62292.5577,4,4
93970,1,33,6,1,2,0,2,2,3,0,5,1,1,4,1,2,3,1,3,15562.73036,14962.07627,14,14
93971,1,40,4,1,2,0,1,1,0,0,5,1,1,5,1,3,3,1,2,25686.84423,25729.26626,15,15
93972,1,35,3,2,2,0,1,1,0,0,4,1,1,3,1,2,2,1,2,124268.7706,154316.6547,14,14
93973,2,14,2,2,0,0,1,1,0,8,0,0,2,5,2,2,2,3,0,28993.82215,29793.26075,5,5
93974,1,59,3,1,2,0,1,1,0,0,5,3,1,1,1,3,3,2,0,60545.66186,63655.33829,5,5
93975,2,54,3,1,2,0,1,1,0,0,3,3,1,3,2,3,2,2,0,80213.51149,77479.09475,7,7
93976,2,0,2,1,0,0,1,1,0,0,0,0,2,7,2,2,1,1,1,6906.98721,7077.456686,3,3
93977,2,66,4,2,2,0,2,1,7,0,3,1,1,5,1,4,2,1,2,17957.49598,18813.1244,0,0
93978,1,57,6,1,2,0,2,2,5,0,3,1,1,2,2,3,1,1,2,16459.9698,16370.01878,1,1
93979,1,16,3,2,0,0,1,1,0,9,0,0,1,4,2,3,1,1,1,32771.9749,42487.17245,7,7
93980,2,29,3,1,2,0,1,1,0,0,5,5,1,1,2,2,3,3,0,151975.7043,159563.7043,10,10
93981,2,52,6,2,2,0,2,2,6,0,5,1,1,3,1,3,0,1,3,14511.68323,14853.58021,0,0
93982,2,57,3,1,2,0,2,1,7,0,5,3,1,1,2,3,3,2,0,92061.19119,95031.56174,1,1
93983,2,75,6,2,2,0,2,1,9,0,3,1,1,2,1,4,2,1,2,18788.61241,19678.44909,8,8
93984,2,32,3,1,2,0,1,1,0,0,4,1,1,4,1,3,2,1,2,40922.4655,39999.59674,10,10
93985,2,61,2,1,2,0,2,2,6,0,4,1,2,5,1,4,3,1,2,9531.054959,9578.6946,5,5
93986,2,7,4,1,0,0,1,1,0,0,0,0,1,4,2,2,2,3,0,11200.86572,11511.05308,77,77
93987,1,35,1,2,2,0,2,2,5,0,2,1,1,6,1,2,1,1,2,22970.99728,22831.7857,7,7
93988,2,32,3,1,2,0,1,1,0,0,3,1,1,5,1,2,2,1,2,105555.8165,104437.3976,4,4
93989,2,39,3,2,2,0,1,1,0,0,5,1,1,4,2,2,3,1,3,20229.20462,19629.85456,15,15
93990,2,64,3,2,2,0,2,1,8,0,5,1,1,2,1,3,1,1,3,125233.3004,123408.3085,6,6
93991,1,12,2,2,0,0,1,1,0,7,0,0,2,7,2,2,1,2,0,32478.79211,33500.31678,0,0
93992,2,12,6,2,0,0,1,1,0,6,0,0,1,4,1,3,1,1,1,10601.89401,12197.97362,15,15
93993,2,2,3,2,0,0,1,1,0,0,0,0,1,3,2,2,2,1,0,15820.50316,16427.55709,5,5
93994,2,0,4,1,0,0,1,1,0,0,0,0,1,7,2,3,2,2,0,9328.188751,9613.345906,2,2
93995,2,12,3,2,0,0,1,1,0,7,0,0,1,6,1,3,3,1,2,68544.82491,70646.00944,15,15
93996,1,3,2,2,0,0,1,1,0,0,0,0,2,7,1,2,0,1,1,22008.53632,25080.75214,99,99
93997,2,11,3,2,0,0,1,1,0,6,0,0,1,7,1,2,3,1,3,19396.34146,21201.10851,6,6
93998,2,24,3,2,2,0,1,1,0,0,3,5,1,4,2,3,2,2,0,89825.86957,88807.91787,8,8
93999,2,23,4,1,2,0,1,1,0,0,4,5,1,4,1,3,0,1,3,32245.72404,34528.91844,15,15
94000,1,60,3,0,2,0,1,1,0,0,4,3,1,4,1,4,2,2,0,122588.0524,0,14,14
94001,2,18,1,1,2,0,1,1,0,11,0,0,1,4,1,4,0,2,0,27359.10009,28239.3021,0,0
94002,2,27,4,1,2,0,1,1,0,0,5,1,1,4,1,2,2,1,3,23983.40954,25742.43168,14,14
94003,2,75,1,2,2,0,1,1,0,0,4,2,1,1,2,4,2,2,0,17723.77164,17609.22209,6,6
94004,2,25,6,1,2,0,1,1,0,0,5,5,1,5,2,3,1,1,0,32012.56025,33140.03386,15,15
94005,1,7,1,1,0,0,1,1,0,1,0,0,1,7,1,2,1,1,2,17813.32896,18205.14015,3,3
94006,1,13,1,1,0,0,1,1,0,6,0,0,1,5,1,2,2,1,3,44513.6455,46625.53919,15,15
94007,1,79,4,2,2,0,2,1,8,0,3,2,1,1,1,4,2,2,0,10936.25749,11904.86623,8,8
94008,2,46,1,1,2,0,2,2,5,0,1,6,2,5,2,3,1,1,1,14037.35165,13626.20995,13,13
94009,2,11,2,2,0,0,1,1,0,5,0,0,2,5,2,2,2,1,1,12077.23617,11897.14769,14,14
94010,1,71,3,2,2,0,1,1,0,0,5,1,1,2,1,4,3,1,3,55058.23001,62831.09485,7,7
94011,2,7,6,2,0,0,1,1,0,2,0,0,1,4,1,3,3,1,3,11579.67795,12161.21519,8,8
94012,2,25,7,2,2,0,1,1,0,0,4,6,1,4,2,2,2,1,0,124613.3046,125331.6036,8,8
94013,1,56,3,1,2,0,1,1,0,0,4,5,1,3,1,3,2,3,0,31075.24758,32116.92612,14,14
94014,2,6,6,1,0,0,1,1,0,0,0,0,1,6,1,3,2,1,3,12961.65802,13612.59899,15,15
94015,2,30,3,2,2,0,1,1,0,0,2,3,1,4,2,4,2,2,0,44180.61955,51552.70785,6,6
94016,1,70,7,1,1,2,1,1,0,0,1,1,1,2,2,4,1,1,1,9692.355901,11882.0354,4,4
94017,1,54,3,1,2,0,1,1,0,0,4,1,1,2,1,3,2,1,3,123854.92,133063.9783,14,14
94018,2,4,6,0,0,0,1,1,0,0,0,0,1,7,1,2,2,1,1,7712.946642,0,7,7
94019,2,64,4,1,2,0,1,1,0,0,3,1,1,3,1,4,2,1,2,34077.9402,36240.1752,14,14
94020,1,3,3,2,0,0,1,1,0,0,0,0,1,6,1,2,2,1,2,40622.4215,41365.56743,7,7
94021,2,38,3,2,2,0,1,1,0,0,1,4,1,2,2,2,1,2,0,36645.74875,38278.90808,1,1
94022,2,1,2,1,0,0,1,1,0,0,0,0,2,4,1,2,1,1,1,12843.95971,13866.07441,4,4
94023,1,4,4,0,0,0,1,1,0,0,0,0,1,4,1,2,2,1,2,11771.17043,0,14,14
94024,1,10,2,1,0,0,1,1,0,4,0,0,1,6,2,2,2,2,0,16938.85159,17388.91505,12,6
94025,2,5,6,1,0,0,1,1,0,0,0,0,1,4,1,3,3,1,3,8871.994087,9284.3814,15,15
94026,2,80,3,2,2,0,1,1,0,0,9,2,1,1,2,4,0,2,0,58628.41286,66432.18296,0,0
94027,1,20,1,2,2,0,2,2,2,0,3,5,2,3,1,3,1,2,0,37609.62731,40566.78449,99,99
94028,2,39,2,1,2,0,2,1,5,0,5,3,1,2,2,2,3,2,0,57389.29814,55761.57728,10,10
94029,2,46,3,2,2,0,1,1,0,0,5,6,1,2,1,3,2,1,0,83118.76872,84105.09587,15,8
94030,1,45,3,1,2,0,1,1,0,0,2,6,1,4,1,3,1,1,0,115083.7033,122602.4307,15,15
94031,1,67,4,2,2,0,1,1,0,0,2,2,1,1,1,4,1,2,0,8659.737641,9989.999068,3,3
94032,1,10,7,1,0,0,1,1,0,4,0,0,1,6,1,4,2,1,2,37283.32438,39802.12661,5,5
94033,2,55,2,1,2,0,2,1,7,0,3,1,1,4,1,4,0,1,2,87607.05246,95567.15987,15,15
94034,2,54,2,2,2,0,2,1,7,0,2,1,2,5,2,3,1,1,1,20763.40304,20485.92445,3,3
94035,2,12,7,2,0,0,1,1,0,6,0,0,1,4,2,2,2,3,0,17580.31967,17957.66575,2,2
94036,2,12,1,2,0,0,1,1,0,5,0,0,1,5,2,3,2,2,0,15093.74936,15349.27363,4,4
94037,1,59,6,2,2,0,2,1,5,0,5,1,1,2,1,3,3,1,0,9694.029513,9807.453006,15,15
94038,2,59,1,1,2,0,2,1,8,0,5,3,1,2,2,3,3,2,0,50279.84339,47926.35236,4,4
94039,1,60,6,2,2,0,2,1,7,0,5,1,1,2,2,4,3,1,3,11727.46149,12271.35964,15,15
94040,1,28,7,1,2,0,1,1,0,0,2,5,1,3,2,3,0,3,0,12116.58375,12260.43865,0,0
94041,2,60,2,2,2,0,1,1,0,0,4,1,1,2,2,4,2,1,2,22780.52925,25217.42334,15,15
94042,1,26,7,1,2,0,1,1,0,0,3,5,1,3,1,2,2,3,0,75335.51363,81986.06858,5,5
94043,1,64,6,2,2,0,2,1,7,0,5,1,1,3,1,2,2,3,0,10627.98974,10837.03615,15,15
94044,2,34,2,2,2,0,1,1,0,0,2,1,1,6,1,2,2,1,1,49824.79129,49610.52061,15,15
94045,1,62,2,1,2,0,2,1,7,0,1,2,2,1,1,4,1,2,0,9758.013643,10327.61509,3,3
94046,1,46,2,1,2,0,2,1,6,0,1,3,1,4,1,3,1,2,0,25665.54339,27451.50855,7,7
94047,2,45,1,2,2,0,2,2,2,0,3,1,2,5,1,3,2,1,2,31252.26226,39119.09737,14,14
94048,1,80,3,2,1,1,1,1,0,0,3,2,1,1,1,4,2,2,0,13693.14784,19219.79716,6,6
94049,2,66,4,1,2,0,1,1,0,0,4,5,1,4,2,4,2,3,0,9873.307393,9984.412131,6,6
94050,2,55,3,2,2,0,1,1,0,0,3,3,1,1,2,3,2,2,0,77717.22101,86525.95022,3,3
94051,2,80,3,2,2,0,1,1,0,0,3,2,1,1,2,4,2,2,0,40631.19876,45657.67422,15,15
94052,1,4,4,2,0,0,1,1,0,0,0,0,1,4,2,2,2,3,0,7377.025093,7727.849999,4,4
94053,2,62,4,1,2,0,2,2,1,0,1,2,1,7,1,2,0,1,2,15584.47556,15591.13978,9,7
94054,1,50,1,2,2,0,1,1,0,0,3,5,1,5,1,4,2,1,2,41582.32636,45961.95094,7,7
94055,1,80,4,1,1,1,1,1,0,0,1,2,1,7,1,4,1,2,0,9189.486225,9325.146658,9,9
94056,1,8,4,1,0,0,1,1,0,2,0,0,1,6,2,2,2,1,0,7919.473627,8781.250762,15,15
94057,2,62,3,2,2,0,1,1,0,0,2,2,1,1,2,4,1,2,0,32960.59058,35077.37231,7,7
94058,2,61,3,1,2,0,1,1,0,0,4,1,1,2,1,4,2,1,2,81613.44305,80632.74307,7,7
94059,2,54,1,1,2,0,2,2,7,0,2,5,2,3,2,3,1,3,0,9071.107549,8754.640415,4,4
94060,1,59,3,1,2,0,1,1,0,0,4,1,1,3,1,3,2,1,3,27076.20965,27901.40019,8,8
94061,2,36,1,1,2,0,2,2,77,0,2,1,2,5,2,2,1,1,1,27994.9043,30310.96058,6,6
94062,1,5,3,1,0,0,1,1,0,0,0,0,1,4,1,2,2,1,0,27708.03278,29825.16555,15,15
94063,1,2,3,1,0,0,1,1,0,0,0,0,1,4,2,2,2,3,0,12953.86393,16946.39446,2,2
94064,1,17,1,2,2,0,1,1,0,10,0,0,2,7,2,3,1,1,0,28489.97552,29761.56201,4,4
94065,2,69,4,1,2,0,1,1,0,0,3,2,1,1,2,4,2,2,0,14536.35106,14084.81215,6,6
94066,2,1,3,2,0,0,1,1,0,0,0,0,1,5,2,2,3,1,3,13939.24276,15939.99481,15,15
94067,1,44,1,1,2,0,2,2,5,0,2,1,2,5,1,3,1,1,1,20446.6537,20480.46631,7,7
94068,1,69,3,1,2,0,1,1,0,0,4,1,1,2,1,4,2,1,0,148118.3657,159061.4891,14,14
94069,1,61,3,1,2,0,1,1,0,0,3,1,1,3,1,4,2,1,2,207083.5196,217036.3548,9,9
94070,2,8,6,1,0,0,1,1,0,2,0,0,1,4,2,3,3,1,3,12613.57275,13472.63051,15,15
94071,1,33,6,2,2,0,2,2,2,0,5,1,1,3,1,2,3,1,3,19099.92649,22740.01847,14,14
94072,1,0,1,2,0,0,1,1,0,0,0,0,1,4,2,2,2,1,0,8940.76334,9277.256675,6,6
94073,1,69,2,2,2,0,2,1,9,0,2,3,1,1,1,4,1,2,0,6993.046425,7488.166893,8,8
94074,1,29,3,1,2,0,1,1,0,0,4,4,1,2,1,2,2,2,0,151719.4386,169951.0217,15,10
94075,1,9,1,1,0,0,1,1,0,2,0,0,1,4,2,2,2,2,0,13787.38541,13996.65728,4,4
94076,1,2,1,1,0,0,1,1,0,0,0,0,2,7,2,2,1,1,0,20422.14822,22221.08664,3,3
94077,2,79,3,0,2,0,1,1,0,0,4,2,1,1,2,4,2,2,0,61158.36351,0,8,8
94078,2,19,3,1,2,0,1,1,0,13,0,0,1,4,2,3,2,1,2,66128.28987,68094.33081,0,0
94079,2,0,1,1,0,0,1,1,0,0,0,0,1,3,1,3,2,1,2,10204.94941,10473.17748,15,15
94080,2,79,3,2,2,0,1,1,0,0,3,1,1,2,2,4,2,1,2,82996.88048,88459.79672,7,7
94081,1,80,6,1,2,0,2,1,8,0,5,3,1,4,1,4,3,2,0,13386.78388,13779.95848,15,15
94082,2,69,3,1,2,0,1,1,0,0,4,1,1,2,2,4,2,1,3,191892.7765,195848.9601,14,14
94083,1,7,2,2,0,0,1,1,0,1,0,0,1,7,2,3,2,1,2,16155.89491,16783.27294,15,15
94084,2,61,6,2,2,0,2,1,6,0,3,1,1,2,1,4,3,1,2,19003.17515,20397.57452,8,8
94085,2,80,7,0,2,0,1,1,0,0,3,2,1,2,2,4,3,0,0,49662.21483,0,4,4
94086,2,80,3,1,2,0,1,1,0,0,3,2,1,1,2,4,2,2,0,32904.99296,35415.21282,5,5
94087,1,19,3,1,2,0,1,1,0,13,0,0,1,1,1,1,2,0,0,62924.10783,61809.6966,2,2
94088,2,1,3,1,0,0,1,1,0,0,0,0,1,4,1,3,3,1,3,21628.55916,21839.01087,14,14
94089,2,12,4,2,0,0,1,1,0,5,0,0,1,3,2,2,1,3,0,13944.83934,14033.79647,7,2
94090,2,16,1,1,0,0,1,1,0,9,0,0,1,3,1,2,2,1,0,38698.8077,42002.58716,15,15
94091,1,11,1,2,0,0,2,2,2,5,0,0,1,4,2,3,3,1,3,29297.55077,30406.18363,15,15
94092,1,52,1,1,2,0,2,1,7,0,1,6,1,2,1,3,1,1,1,26842.11552,28682.5298,99,99
94093,1,36,3,1,2,0,2,2,1,0,3,1,1,2,1,2,2,1,3,144022.5898,167220.6988,15,15
94094,2,15,4,2,0,0,1,1,0,9,0,0,1,5,2,3,3,2,0,9540.711699,11468.04815,14,14
94095,2,78,4,2,1,2,1,1,0,0,4,3,1,1,2,4,2,2,0,13456.79452,14322.90052,5,5
94096,1,80,3,1,1,2,1,1,0,0,5,1,1,2,1,4,3,1,3,45756.5575,53456.32414,12,12
94097,2,62,3,2,2,0,1,1,0,0,3,3,1,4,2,4,2,2,0,47269.44133,45319.56318,6,6
94098,2,23,4,1,2,0,1,1,0,0,4,5,1,2,2,2,2,3,0,23946.76871,26241.83709,6,6
94099,2,20,7,1,2,0,1,1,0,0,4,5,1,6,2,3,2,1,2,15117.34636,15874.0859,8,8
94100,2,0,2,2,0,0,1,1,0,0,0,0,1,5,2,2,2,1,1,11454.35515,11086.39243,7,7
94101,2,64,6,2,2,0,2,1,7,0,4,1,1,2,1,4,3,1,2,19765.19003,23294.2689,14,14
94102,1,72,3,0,1,1,1,1,0,0,4,1,1,2,1,4,2,1,2,47229.82788,0,15,15
94103,1,7,3,1,0,0,1,1,0,0,0,0,1,3,2,3,2,1,2,27963.77087,29432.7142,15,15
94104,2,7,1,1,0,0,1,1,0,0,0,0,1,5,2,3,0,2,0,17938.68258,17737.04167,4,4
94105,2,46,1,2,2,0,1,1,0,0,4,1,1,5,1,3,2,1,2,28047.00644,27389.61734,15,15
94106,1,19,1,2,2,0,2,1,4,12,0,0,1,3,1,2,2,3,0,32569.68429,34546.96587,12,12
94107,2,11,3,2,0,0,1,1,0,4,0,0,1,6,1,2,2,1,0,62734.55675,80878.13998,14,14
94108,1,64,1,1,2,0,2,2,5,0,1,1,2,3,1,3,0,3,0,9758.013643,10327.61509,12,5
94109,2,13,3,2,0,0,1,1,0,6,0,0,1,3,1,3,2,1,1,23554.16589,23278.0743,2,2
94110,1,3,3,1,0,0,1,1,0,0,0,0,1,4,1,2,2,1,2,36272.90479,49126.31173,10,10
94111,2,2,3,2,0,0,1,1,0,0,0,0,1,6,2,2,2,1,2,16795.83003,16908.12081,8,8
94112,1,28,1,1,2,0,1,1,0,0,4,5,1,3,1,2,3,1,0,41907.7707,54130.73477,7,6
94113,2,60,3,2,2,0,2,1,9,0,3,3,1,2,2,4,2,2,0,70729.84037,72777.30499,6,6
94114,1,20,4,2,2,0,1,1,0,0,2,5,1,5,2,4,2,2,0,24315.34179,22836.77506,99,99
94115,1,1,3,2,0,0,1,1,0,0,0,0,1,4,2,2,2,1,2,14558.74732,19259.63707,2,2
94116,2,60,3,1,2,0,1,1,0,0,4,1,1,2,1,4,2,1,2,176729.5435,177352.783,9,9
94117,2,57,3,2,2,0,1,1,0,0,2,3,1,3,2,3,1,2,0,25178.4576,26320.95945,7,7
94118,2,50,2,1,2,0,2,1,7,0,1,1,2,3,2,3,1,1,1,19035.21787,19878.63358,13,13
94119,1,57,4,1,1,1,1,1,0,0,4,3,1,4,1,4,2,1,2,16532.847,16695.10556,10,10
94120,2,11,3,0,0,0,1,1,0,5,0,0,1,7,2,3,2,1,2,17817.44647,0,12,6
94121,2,12,3,1,0,0,1,1,0,6,0,0,1,4,2,3,1,3,0,66651.20081,68632.78826,4,4
94122,1,33,2,1,2,0,2,2,99,0,1,6,2,3,1,2,1,1,0,27183.79258,28142.54039,77,99
94123,2,50,4,0,2,0,2,1,4,0,4,1,1,4,1,2,0,3,0,10622.94006,0,0,0
94124,1,55,2,1,2,0,2,2,6,0,2,1,1,4,2,3,2,1,1,26214.09986,26719.36637,6,6
94125,1,13,6,2,0,0,1,1,0,8,0,0,1,4,1,4,1,1,1,5860.501443,5816.343217,6,6
94126,2,62,4,2,2,0,1,1,0,0,1,3,1,2,2,4,1,2,0,7961.711738,8264.971565,6,6
94127,2,34,6,1,2,0,2,1,6,0,3,1,1,7,1,2,3,1,2,39101.01406,38208.15398,12,12
94128,1,35,4,1,1,1,1,1,0,0,4,3,1,1,1,2,2,2,0,24550.11874,26210.78613,10,10
94129,1,7,4,2,0,0,1,1,0,1,0,0,1,5,2,4,1,2,0,14187.60279,15731.46192,77,77
94130,2,27,4,1,2,0,1,1,0,0,4,5,1,5,1,2,2,3,0,17681.56223,18933.52493,99,99
94131,2,39,3,1,2,0,1,1,0,0,4,1,1,4,1,3,2,1,2,51518.12618,50216.95449,14,14
94132,1,14,4,2,0,0,1,1,0,7,0,0,1,4,1,2,2,1,0,17312.38046,18256.30558,1,1
94133,1,28,1,1,2,0,1,1,0,0,4,5,1,6,1,3,2,1,1,25108.54179,25580.56162,99,99
94134,2,61,2,2,2,0,2,2,5,0,5,3,2,5,1,3,2,1,3,24424.77218,26019.64069,6,6
94135,2,37,2,1,2,0,1,1,0,0,4,5,1,2,2,2,2,3,0,36681.34203,38116.90465,8,8
94136,1,10,2,2,0,0,1,1,0,4,0,0,1,5,1,2,2,2,0,32362.60102,34466.98466,9,1
94137,2,49,4,2,2,0,2,1,8,0,5,3,1,5,2,2,3,3,0,40737.60444,46448.72897,15,15
94138,2,72,6,2,2,0,2,1,8,0,4,1,1,2,2,4,2,1,3,9819.214968,10839.07139,15,15
94139,2,49,2,2,2,0,1,1,0,0,4,6,1,2,2,3,2,1,2,20666.10633,20256.92206,4,4
94140,1,17,1,1,2,0,1,1,0,11,0,0,1,3,2,3,1,3,0,19067.77947,19536.31455,4,4
94141,1,71,4,2,2,0,1,1,0,0,5,1,1,2,1,4,3,1,3,17613.86055,18649.2722,15,15
94142,1,5,7,1,0,0,1,1,0,0,0,0,1,2,2,2,2,3,0,13227.75669,13949.86956,6,6
94143,1,3,4,1,0,0,1,1,0,0,0,0,1,5,1,2,2,1,2,7903.775217,8688.027436,7,7
94144,1,18,7,1,2,0,1,1,0,11,0,0,1,3,2,3,2,2,0,19148.83819,19752.30732,6,6
94145,2,15,2,1,0,0,1,1,0,8,0,0,2,7,2,2,1,1,1,17900.7798,18629.41073,99,99
94146,2,2,3,2,0,0,1,1,0,0,0,0,1,6,2,2,2,1,2,17480.98003,17629.39499,6,6
94147,1,80,3,0,1,1,1,1,0,0,5,1,1,2,1,4,3,1,3,36777.68925,0,0,0
94148,2,18,1,2,2,0,2,1,5,13,0,0,1,4,1,2,1,1,2,20469.93814,21341.32887,7,7
94149,1,14,4,2,0,0,1,1,0,7,0,0,1,5,2,4,2,2,0,20282.60619,24515.97853,99,99
94150,1,68,3,2,2,0,1,1,0,0,1,1,1,2,2,4,1,1,1,16068.20246,17154.29779,6,6
94151,1,23,2,1,2,0,1,1,0,0,5,6,1,2,1,2,3,1,0,77609.40747,98092.69833,15,10
94152,2,64,3,2,2,0,1,1,0,0,4,4,1,2,2,4,2,2,0,39581.00847,39623.45608,4,4
94153,1,10,7,1,0,0,1,1,0,3,0,0,1,6,2,1,2,0,0,14806.06451,16059.01838,5,5
94154,2,80,3,1,2,0,1,1,0,0,4,1,1,2,1,4,1,1,2,47130.54276,53868.28536,14,14
94155,1,56,6,1,2,0,1,1,0,0,5,1,1,2,1,3,3,1,2,7597.693585,7880.070964,15,15
94156,2,63,1,2,2,0,1,1,0,0,3,1,1,2,1,3,2,1,2,17738.66881,19867.28359,14,14
94157,2,60,6,1,2,0,2,1,7,0,3,1,1,3,2,4,2,1,2,15039.13636,15137.15904,15,15
94158,1,66,1,2,2,0,2,2,6,0,1,1,2,3,1,4,1,1,0,9236.014503,10007.62359,12,12
94159,2,13,1,1,0,0,2,2,3,6,0,0,2,3,2,2,1,3,0,19871.44178,20207.8483,3,3
94160,2,22,3,2,2,0,1,1,0,0,4,1,1,7,1,3,2,1,2,92911.75203,95674.89808,15,15
94161,1,53,6,1,2,0,2,2,3,0,2,1,1,2,1,3,1,1,1,5559.509578,6400.573834,7,7
94162,1,64,2,2,2,0,2,2,2,0,1,1,2,3,2,2,1,3,0,7806.939623,8447.180947,3,3
94163,1,35,3,2,2,0,1,1,0,0,2,1,1,5,2,2,2,1,1,20441.5713,21026.81374,8,8
94164,2,18,6,2,2,0,1,1,0,12,0,0,1,3,2,3,2,2,0,14034.1523,15950.12922,6,6
94165,2,9,4,2,0,0,1,1,0,5,0,0,1,5,1,2,1,1,0,12661.22862,13337.88843,4,4
94166,1,28,3,1,1,2,1,1,0,0,4,1,1,1,1,2,2,1,0,98091.56438,126438.5107,3,3
94167,1,17,7,1,2,0,1,1,0,10,0,0,1,5,2,4,3,2,0,154056.8083,160820.5488,14,14
94168,2,66,2,1,2,0,2,2,2,0,1,1,2,6,2,4,1,1,2,11262.01836,11360.18435,3,3
94169,1,26,6,1,2,0,2,2,2,0,5,5,1,3,2,2,3,1,0,23928.66509,30712.54312,15,15
94170,1,2,4,2,0,0,1,1,0,0,0,0,1,5,2,3,0,2,0,9875.873289,9933.685293,0,0
94171,1,8,4,1,0,0,1,1,0,2,0,0,1,5,1,3,1,1,0,16838.01539,18741.29226,6,6
94172,2,2,3,2,0,0,1,1,0,0,0,0,1,4,1,2,3,1,2,26928.18026,27394.4714,14,14
94173,2,68,4,2,2,0,1,1,0,0,3,3,1,6,2,4,2,2,0,12902.74879,12621.34813,5,5
94174,2,45,1,1,2,0,2,2,99,0,1,6,2,7,2,3,1,1,1,22632.44237,22151.15295,99,99
94175,1,77,3,2,1,2,1,1,0,0,3,1,1,2,1,4,2,1,2,9784.956196,9942.677908,5,5
94176,2,24,3,2,2,0,1,1,0,0,4,5,1,2,2,2,2,3,0,144839.6501,145674.5383,8,7
94177,2,59,1,1,2,0,2,2,3,0,5,3,2,3,2,3,3,2,0,23665.20574,22323.3288,6,6
94178,1,34,3,1,2,0,1,1,0,0,4,4,1,5,2,3,2,1,0,168876.069,171391.1704,15,15
94179,1,72,3,2,2,0,1,1,0,0,3,1,1,2,2,4,2,1,2,7135.056421,9478.71354,6,6
94180,2,7,3,2,0,0,1,1,0,0,0,0,1,5,2,2,2,1,2,13380.58681,14292.58168,8,8
94181,2,36,6,2,2,0,2,1,6,0,3,1,1,7,1,2,3,1,2,39101.01406,38208.15398,12,12
94182,2,59,3,2,2,0,1,1,0,0,5,5,1,1,2,3,3,3,0,125121.3045,125655.745,15,15
94183,1,49,3,2,2,0,1,1,0,0,4,1,1,2,1,3,2,1,1,114528.1721,113714.7522,15,15
94184,1,8,3,1,0,0,1,1,0,2,0,0,1,7,2,2,2,3,0,53135.29133,57123.72651,14,14
94185,1,3,1,1,0,0,2,2,2,0,0,0,2,7,1,3,1,1,0,19665.45039,21397.7331,99,99
94186,2,13,4,2,0,0,1,1,0,7,0,0,1,4,2,3,3,2,0,12289.48941,12553.27247,12,99
94187,2,54,6,2,2,0,2,1,6,0,5,1,1,3,2,3,3,1,3,20985.32419,26451.36529,15,15
94188,1,64,3,0,1,1,1,1,0,0,3,1,1,2,2,3,2,1,2,16526.28316,0,6,6
94189,2,21,1,1,2,0,1,1,0,0,3,1,1,4,2,2,2,1,1,39253.5474,47206.96498,7,7
94190,1,43,6,1,2,0,2,1,7,0,4,5,1,4,1,4,0,1,0,26611.55231,28042.84973,15,15
94191,2,2,3,2,0,0,1,1,0,0,0,0,1,5,2,2,2,1,2,22960.75754,24959.043,14,14
94192,2,54,3,1,2,0,1,1,0,0,3,1,1,2,1,3,2,1,2,243181.5169,252445.4117,15,15
94193,2,58,4,1,2,0,1,1,0,0,4,3,1,3,2,3,2,2,0,24273.12887,26440.85263,7,7
94194,2,9,3,2,0,0,1,1,0,3,0,0,1,4,1,2,2,1,2,20224.28032,25610.9083,6,6
94195,2,16,3,2,0,0,1,1,0,10,0,0,1,5,1,3,2,1,2,47534.13242,49038.09319,14,14
94196,2,0,3,2,0,0,1,1,0,0,0,0,1,7,1,2,3,1,3,7817.705049,7287.823613,6,6
94197,2,8,4,1,0,0,1,1,0,2,0,0,1,4,1,3,2,0,0,14234.874,14854.21859,6,6
94198,2,63,1,1,2,0,2,1,8,0,1,1,2,3,1,4,2,1,1,10996.07163,11353.06931,15,15
94199,1,69,6,2,2,0,2,2,4,0,3,1,1,2,1,4,2,1,1,25068.13996,25928.13724,1,1
94200,2,26,2,1,2,0,2,1,6,0,4,5,1,4,2,3,3,1,2,25400.9531,26817.68987,14,14
94201,1,77,6,1,2,0,1,1,0,0,4,1,1,2,1,4,2,1,3,26661.5597,29003.14015,0,0
94202,1,70,3,1,2,0,1,1,0,0,5,1,1,3,2,4,2,1,3,10089.90717,11111.12168,15,15
94203,1,2,2,2,0,0,1,1,0,0,0,0,1,4,1,3,2,1,3,16832.99508,20283.15539,14,14
94204,1,80,3,0,1,1,1,1,0,0,4,2,1,4,1,4,2,1,2,34881.58679,0,15,15
94205,2,73,3,2,2,0,1,1,0,0,4,2,1,2,1,3,3,1,0,118558.57,135133.0549,12,12
94206,1,56,6,2,2,0,2,2,2,0,5,1,1,3,1,3,3,1,3,12010.08599,13539.7062,14,14
94207,1,62,4,1,2,0,1,1,0,0,2,1,1,2,1,4,1,1,1,13783.03842,14385.59379,3,3
94208,2,45,4,2,2,0,1,1,0,0,5,5,1,3,1,4,3,1,0,11782.81388,12386.15669,14,14
94209,2,0,2,1,0,0,1,1,0,0,0,0,1,4,1,4,2,1,2,8143.088486,8288.059657,15,15
94210,1,80,4,2,2,0,1,1,0,0,2,3,1,1,1,4,1,2,0,9058.91474,10298.48772,3,3
94211,2,23,3,1,2,0,1,1,0,0,5,5,1,4,2,2,3,3,0,104530.7049,104368.1218,15,7
94212,2,67,6,1,2,0,2,1,7,0,4,1,1,4,1,4,2,1,2,10410.6421,11393.96202,10,10
94213,2,3,4,0,0,0,1,1,0,0,0,0,1,5,2,2,2,1,0,15952.87111,0,4,4
94214,2,19,3,2,2,0,1,1,0,15,0,0,1,3,1,3,2,1,3,66531.46291,68386.90939,14,14
94215,1,0,3,2,0,0,1,1,0,0,0,0,1,3,2,2,2,1,0,29091.61155,29466.53578,8,8
94216,2,67,4,2,2,0,1,1,0,0,5,1,1,2,1,4,2,1,3,15385.16293,16603.03308,15,15
94217,1,18,6,2,2,0,1,1,0,13,0,0,1,4,2,3,3,1,3,19024.87515,19413.90638,15,15
94218,2,5,3,2,0,0,1,1,0,0,0,0,1,4,1,3,0,1,0,28525.32288,38170.32453,12,12
94219,2,23,1,2,2,0,1,1,0,0,4,5,1,4,1,1,2,0,0,52553.69187,53256.07515,12,12
94220,2,17,4,2,2,0,1,1,0,11,0,0,1,6,2,3,2,2,0,10557.7755,10784.38885,6,6
94221,2,27,4,1,2,0,1,1,0,0,4,5,1,2,1,4,2,2,0,20035.31785,21533.8868,4,1
94222,1,2,7,1,0,0,1,1,0,0,0,0,1,3,1,3,3,1,3,43240.94321,46327.82829,99,99
94223,2,43,2,2,2,0,2,2,5,0,4,1,1,3,2,3,2,1,2,18727.46583,22680.50381,4,4
94224,1,23,2,2,2,0,1,1,0,0,4,5,1,3,2,3,3,2,0,60681.5608,60437.14711,14,14
94225,1,12,6,1,0,0,1,1,0,5,0,0,1,5,1,3,1,1,1,11956.70603,12134.05023,7,7
94226,1,5,4,2,0,0,1,1,0,0,0,0,1,2,2,2,2,2,0,16048.87695,17844.50999,6,6
94227,1,80,3,1,1,2,1,1,0,0,5,2,1,1,1,4,3,2,0,31094.33936,35107.22232,14,14
94228,2,0,1,1,0,0,1,1,0,0,0,0,1,7,2,2,2,1,0,6072.570019,6188.059561,6,6
94229,2,69,4,1,2,0,1,1,0,0,2,1,1,2,1,3,0,1,1,16384.16087,16053.27853,77,77
94230,1,15,4,2,0,0,1,1,0,8,0,0,1,6,2,4,2,3,0,16922.23377,17265.97148,12,12
94231,1,59,3,0,2,0,1,1,0,0,4,3,1,1,1,3,2,2,0,26387.37946,0,6,6
94232,1,70,3,1,2,0,1,1,0,0,5,1,1,2,1,4,3,1,3,120329.8829,133053.3235,15,15
94233,1,62,1,1,2,0,2,1,8,0,2,1,2,3,1,4,1,1,1,10013.37325,10685.48019,8,8
94234,2,10,7,1,0,0,1,1,0,5,0,0,1,4,2,4,2,2,0,10720.62315,11293.57031,7,7
94235,2,18,3,1,2,0,1,1,0,13,0,0,1,1,2,1,2,0,0,50218.43483,49629.79637,1,1
94236,1,5,4,2,0,0,1,1,0,0,0,0,1,3,2,2,1,3,0,11297.47649,12561.49778,1,1
94237,1,63,3,2,2,0,1,1,0,0,5,1,1,2,1,4,3,1,3,257751.3084,276067.6586,15,15
94238,2,15,4,1,0,0,1,1,0,8,0,0,1,4,2,3,2,1,0,22534.88108,23088.16116,15,15
94239,2,76,6,0,2,0,2,1,9,0,5,5,1,1,2,4,3,3,0,7847.49063,0,14,14
94240,2,7,3,0,0,0,1,1,0,2,0,0,1,5,1,3,3,1,3,65505.126,0,15,15
94241,2,30,6,2,2,0,2,2,5,0,5,6,1,7,1,2,2,3,0,26594.14978,30326.99715,15,15
94242,1,60,4,1,2,0,1,1,0,0,3,1,1,4,1,4,2,1,2,7858.561644,8010.824801,1,1
94243,1,80,7,2,2,0,1,1,0,0,3,1,1,2,1,4,2,1,2,12732.03857,14194.7906,5,5
94244,2,66,7,0,2,0,1,1,0,0,5,2,1,6,2,4,3,2,0,12939.74289,0,6,6
94245,2,31,3,1,2,0,1,1,0,0,5,6,1,2,2,2,3,1,0,52488.07549,50783.90006,7,7
94246,1,48,6,2,2,0,2,2,6,0,5,1,1,4,1,3,3,1,3,18366.66492,18386.37197,8,8
94247,1,27,3,2,2,0,1,1,0,0,3,1,1,2,2,2,2,1,2,58619.44903,60519.93535,7,7
94248,2,38,4,1,2,0,1,1,0,0,3,5,1,3,2,2,2,3,0,19402.35277,20839.82178,4,4
94249,2,66,4,1,2,0,1,1,0,0,5,2,1,2,2,4,3,2,0,14019.69966,14735.92868,6,6
94250,2,23,3,2,2,0,1,1,0,0,5,1,1,3,2,2,3,1,2,43004.32128,42533.00345,10,10
94251,2,22,3,2,2,0,1,1,0,0,3,6,1,3,2,3,2,2,0,85812.15987,86111.37981,9,9
94252,1,15,7,2,0,0,1,1,0,8,0,0,1,5,1,4,2,1,3,27316.39733,28177.26431,15,15
94253,2,70,7,1,2,0,1,1,0,0,4,2,1,2,2,4,2,2,0,15590.85199,15942.04632,4,4
94254,2,8,6,2,0,0,1,1,0,2,0,0,1,4,1,3,2,1,2,8058.72044,8560.191776,15,15
94255,1,43,1,1,2,0,1,1,0,0,5,6,1,4,1,3,3,1,0,62338.64949,65890.62186,14,14
94256,2,8,3,2,0,0,1,1,0,3,0,0,1,4,2,2,3,2,0,23813.85211,27048.15152,4,4
94257,1,11,6,2,0,0,2,7,2,5,0,0,1,4,2,2,3,1,3,10608.04873,11116.35646,14,14
94258,1,51,3,2,2,0,1,1,0,0,3,1,1,3,1,3,2,1,2,16689.72911,17075.40182,8,8
94259,2,50,6,2,2,0,2,2,6,0,3,1,1,5,2,3,2,2,0,21875.89906,22192.80584,9,6
94260,2,48,6,2,2,0,2,2,1,0,2,1,1,4,2,3,3,1,3,12067.75939,13364.74292,2,2
94261,2,63,6,1,2,0,2,1,6,0,5,1,1,2,1,4,3,1,3,18594.17922,19910.36795,9,9
94262,1,22,1,2,2,0,2,2,6,0,3,5,1,3,2,3,2,2,0,63101.4793,80781.56437,6,6
94263,1,17,3,1,2,0,1,1,0,10,0,0,1,3,2,3,2,2,0,46063.22929,46467.13641,7,7
94264,2,7,3,2,0,0,1,1,0,0,0,0,1,5,1,3,3,1,3,41660.45723,52706.10193,14,14
94265,1,75,7,2,1,2,1,1,0,0,1,5,1,5,2,3,2,2,0,13914.15635,14826.49826,13,13
94266,1,43,2,1,2,0,2,1,3,0,2,5,2,6,1,4,0,1,1,28440.63025,30934.57249,7,7
94267,2,80,6,1,2,0,1,1,0,0,4,1,1,4,1,4,3,1,2,11927.44322,13067.88521,15,15
94268,1,13,4,1,0,0,1,1,0,6,0,0,1,7,2,4,1,2,0,24897.54859,25480.08525,15,15
94269,2,10,1,1,0,0,1,1,0,4,0,0,2,7,2,3,1,1,0,20117.59064,20280.92383,9,9
94270,1,33,1,2,2,0,2,2,5,0,2,6,2,5,1,2,1,1,1,42676.23004,46352.65022,3,3
94271,1,18,3,2,2,0,1,1,0,13,0,0,1,2,2,2,2,2,0,20871.79248,20486.47703,3,3
94272,1,16,3,2,0,0,1,1,0,11,0,0,1,4,1,3,2,1,2,25328.92412,25952.12704,6,6
94273,1,63,1,1,2,0,2,2,7,0,1,1,2,2,1,4,1,1,1,7304.003601,7695.910647,0,0
94274,2,58,2,1,2,0,1,1,0,0,5,1,1,2,1,3,3,1,3,70220.70195,70663.79398,15,15
94275,1,54,1,1,2,0,2,1,6,0,4,1,1,3,1,3,2,1,2,19567.41139,19153.85424,14,14
94276,1,80,6,2,2,0,2,1,4,0,3,1,1,3,1,4,2,1,2,13917.83839,14120.03247,8,8
94277,2,41,2,1,2,0,2,2,4,0,1,6,2,4,2,3,1,1,1,10092.49727,9688.185081,4,4
94278,1,62,6,2,2,0,2,1,7,0,4,1,1,2,1,4,2,1,0,13311.04443,13989.13557,0,0
94279,1,39,6,2,2,0,2,2,3,0,5,1,1,3,1,2,3,1,2,20261.27661,19895.52118,15,15
94280,2,9,7,1,0,0,1,1,0,2,0,0,1,6,2,1,2,0,0,15076.62522,15535.8373,5,5
94281,2,31,7,2,2,0,1,1,0,0,3,5,1,4,2,2,2,3,0,31759.39733,34453.50771,2,2
94282,2,17,4,1,2,0,1,1,0,10,0,0,1,4,2,3,2,3,0,8116.345009,8359.082888,4,4
94283,2,60,4,2,2,0,1,1,0,0,3,2,1,2,1,2,2,3,0,22498.83718,23801.97352,2,2
94284,2,58,4,1,2,0,1,1,0,0,2,1,1,2,1,3,1,1,1,37342.93021,37875.20763,8,8
94285,1,43,2,2,2,0,1,1,0,0,1,1,1,5,2,2,2,1,1,45611.99897,48102.95185,9,9
94286,2,75,4,1,2,0,1,1,0,0,5,2,1,1,2,4,3,2,0,20187.11489,22635.88747,14,14
94287,1,20,3,1,2,0,1,1,0,0,3,5,1,5,2,3,3,1,2,219851.922,231078.4288,15,15
94288,2,28,4,0,2,0,1,1,0,0,4,6,1,5,2,2,2,1,0,35658.21164,0,5,5
94289,2,17,3,0,2,0,1,1,0,11,0,0,1,2,2,3,2,2,0,36700.2274,0,7,7
94290,2,35,6,1,2,0,2,1,7,0,5,3,1,6,1,3,0,1,0,18471.04999,20399.71487,15,15
94291,2,27,1,2,2,0,1,1,0,0,3,6,1,4,1,2,2,1,0,42222.84525,43600.51085,7,7
94292,2,14,6,1,0,0,1,1,0,8,0,0,1,4,1,3,3,1,3,22639.11417,25752.93604,15,15
94293,1,64,3,1,2,0,1,1,0,0,4,1,1,2,1,4,2,1,2,134587.1204,147281.1237,15,15
94294,2,14,1,1,0,0,1,1,0,8,0,0,2,7,1,3,1,1,2,27285.62306,28798.17818,99,99
94295,2,48,6,1,2,0,2,1,6,0,2,1,1,5,2,3,1,1,0,21301.72231,23019.24679,15,15
94296,2,1,3,2,0,0,1,1,0,0,0,0,1,3,2,2,2,1,0,17710.8767,18347.88893,7,7
94297,1,2,7,0,0,0,1,1,0,0,0,0,1,3,1,2,2,2,0,14644.39353,0,0,0
94298,1,80,7,1,1,1,1,1,0,0,5,1,1,2,1,4,3,1,3,17549.79877,17832.28695,7,7
94299,2,12,7,2,0,0,1,1,0,6,0,0,1,3,2,2,2,2,0,32506.31629,34380.32625,6,6
94300,2,69,3,1,2,0,1,1,0,0,5,2,1,1,2,4,3,2,0,135287.882,144636.7843,8,8
94301,2,64,6,1,2,0,1,1,0,0,5,1,1,4,2,4,3,1,2,5239.734507,5573.205152,8,8
94302,2,24,6,1,2,0,2,2,2,0,3,1,1,7,1,2,3,1,2,50406.38512,49547.27917,12,12
94303,1,65,2,2,2,0,2,1,6,0,1,1,2,5,2,2,2,3,0,5224.702992,5666.772376,5,5
94304,1,40,6,2,2,0,2,2,2,0,5,1,1,5,1,3,3,1,3,11812.29273,11824.96708,15,15
94305,2,18,3,2,2,0,1,1,0,13,0,0,1,3,2,3,2,1,0,72568.06374,74591.86049,14,14
94306,2,22,3,2,2,0,1,1,0,0,4,5,1,1,2,2,2,3,0,118470.4008,118245.9117,5,5
94307,2,10,3,2,0,0,1,1,0,5,0,0,1,6,2,2,2,1,1,14171.56506,15490.18351,9,9
94308,2,11,7,1,0,0,1,1,0,7,0,0,1,7,2,2,2,1,3,9677.657505,10279.87071,15,15
94309,2,54,6,1,2,0,2,1,5,0,1,1,1,5,1,2,2,1,2,17026.60281,17156.51651,15,15
94310,1,2,6,1,0,0,1,1,0,0,0,0,1,2,2,2,2,3,0,9665.288679,10730.58114,9,9
94311,2,41,4,2,2,0,1,1,0,0,4,5,1,2,2,3,2,3,0,13540.55674,13608.08119,8,8
94312,2,15,3,2,0,0,1,1,0,8,0,0,1,6,2,2,2,2,0,16944.95828,17546.23146,6,6
94313,1,41,4,1,2,0,1,1,0,0,3,5,1,2,2,4,2,2,0,30358.96957,32009.87698,9,9
94314,1,48,6,1,2,0,2,2,5,0,2,1,1,4,2,3,2,1,1,23845.73355,27483.7748,7,7
94315,2,0,2,2,0,0,1,1,0,0,0,0,2,7,2,1,2,0,0,8346.976969,8689.344054,77,77
94316,1,0,4,0,0,0,1,1,0,0,0,0,1,5,2,2,2,1,0,6428.598729,0,4,4
94317,1,10,7,1,0,0,1,1,0,4,0,0,1,5,2,4,3,2,0,96736.65496,106072.129,14,14
94318,2,3,7,2,0,0,1,1,0,0,0,0,1,5,1,2,3,1,3,25066.28477,25219.47692,15,15
94319,1,44,3,1,2,0,2,1,5,0,5,1,1,3,1,3,3,1,0,230775.1116,225034.5271,15,15
94320,1,33,4,2,2,0,1,1,0,0,3,5,1,7,2,3,2,2,0,28244.01812,31203.92623,9,9
94321,1,60,4,1,2,0,1,1,0,0,2,6,1,2,2,3,2,1,0,11665.69668,11928.79931,0,2
94322,1,20,2,1,2,0,2,2,77,0,2,5,2,5,1,1,1,0,0,18197.31876,19407.65307,77,77
94323,1,60,6,1,2,0,2,1,8,0,5,1,1,4,1,4,3,1,3,10511.85597,9850.780795,15,15
94324,2,50,3,2,2,0,1,1,0,0,2,3,1,2,2,3,1,2,0,117432.1407,124622.5949,15,15
94325,2,62,6,1,2,0,2,1,7,0,4,3,1,4,1,4,2,1,2,21618.0877,23407.11354,15,3
94326,1,55,3,2,1,2,1,1,0,0,3,4,1,1,1,3,2,2,0,201885.8995,213910.4337,14,14
94327,1,61,4,1,1,2,1,1,0,0,4,5,1,2,1,4,2,3,0,13258.63307,14179.48664,8,6
94328,2,29,6,1,2,0,2,1,5,0,5,5,1,5,2,4,2,1,0,22129.88927,22025.58996,10,10
94329,2,6,4,1,0,0,1,1,0,0,0,0,1,7,2,2,2,3,0,12450.5541,12992.26478,14,14
94330,2,57,3,2,2,0,1,1,0,0,3,1,1,3,1,4,2,1,2,304313.95,337044.2469,9,9
94331,2,4,3,2,0,0,1,1,0,0,0,0,1,7,1,3,2,1,3,22231.02435,22724.06709,14,14
94332,2,41,7,0,2,0,1,1,0,0,1,6,1,2,2,3,1,1,0,49854.95113,0,1,1
94333,1,0,4,1,0,0,1,1,0,0,0,0,1,4,2,2,2,3,0,9978.568186,10221.67581,5,3
94334,2,65,6,0,2,0,2,1,7,0,4,4,1,2,2,4,2,2,0,11069.02364,0,4,4
94335,1,69,6,2,2,0,2,1,8,0,2,1,1,4,2,2,2,1,0,13316.78702,14737.60644,9,9
94336,1,74,2,2,2,0,2,1,9,0,4,1,1,2,1,4,2,1,2,18953.64807,21373.27816,6,6
94337,1,44,7,2,2,0,2,1,8,0,4,6,1,7,1,3,0,3,0,26600.54211,31603.60905,7,7
94338,2,4,7,1,0,0,1,1,0,0,0,0,1,4,2,2,2,1,2,21010.00083,23535.04258,12,12
94339,1,37,2,1,2,0,2,2,1,0,5,1,2,2,1,2,3,1,2,62055.62692,74861.29282,7,7
94340,1,25,3,2,2,0,1,1,0,0,3,5,1,2,1,3,3,2,0,141318.0272,147426.706,14,14
94341,1,24,1,1,2,0,1,1,0,0,3,5,1,5,1,3,1,1,1,38766.69425,41674.38635,8,8
94342,2,57,4,1,1,2,1,1,0,0,5,3,1,1,2,3,3,2,0,25696.60674,29006.37607,10,10
94343,1,71,1,2,2,0,1,1,0,0,3,1,1,2,1,4,2,1,1,21464.42954,24720.77567,8,8
94344,2,8,1,1,0,0,1,1,0,1,0,0,2,5,1,2,1,1,2,17130.14909,17127.6545,4,4
94345,1,65,3,2,2,0,1,1,0,0,3,1,1,2,2,4,2,1,2,30360.80599,30636.43358,6,6
94346,1,0,2,1,0,0,1,1,0,0,0,0,1,4,1,2,2,1,2,7652.318769,9812.513108,6,6
94347,2,0,7,1,0,0,1,1,0,0,0,0,1,6,1,2,1,1,2,5404.009838,5389.899145,7,7
94348,1,80,3,1,1,1,1,1,0,0,4,1,1,2,2,4,3,1,2,36953.13315,43600.7447,12,12
94349,1,17,1,2,2,0,1,1,0,13,0,0,1,6,2,3,1,2,0,22516.14106,23521.09878,7,7
94350,1,54,6,2,2,0,2,1,6,0,4,1,1,4,1,3,2,1,2,28368.31194,29894.09635,14,14
94351,1,14,3,1,0,0,1,1,0,8,0,0,1,6,2,2,2,1,2,45399.62589,45797.71418,9,9
94352,2,70,2,2,2,0,2,1,9,0,3,1,1,2,1,4,1,1,2,26719.85845,29468.96117,6,6
94353,2,19,3,1,2,0,1,1,0,11,0,0,1,5,2,4,2,2,0,36411.28106,36954.49421,7,7
94354,2,10,1,1,0,0,1,1,0,4,0,0,1,6,1,2,1,1,3,26686.47655,26263.43287,15,15
94355,1,2,3,1,0,0,1,1,0,0,0,0,1,7,1,2,2,1,2,15655.99018,16109.26001,9,9
94356,1,58,4,1,1,2,1,1,0,0,4,3,1,1,1,3,2,2,0,18090.25819,18794.24299,6,6
94357,1,8,7,1,0,0,1,1,0,2,0,0,1,6,2,1,2,0,0,14806.06451,16059.01838,5,5
94358,1,0,3,1,0,0,1,1,0,0,0,0,1,4,1,2,2,1,2,14713.59558,14311.87997,6,6
94359,1,36,1,1,2,0,2,7,77,0,2,1,2,5,2,2,1,1,1,32562.15261,41777.73592,6,6
94360,1,44,2,2,2,0,1,1,0,0,3,5,1,1,1,3,2,3,0,101791.7433,109985.3858,4,4
94361,2,38,1,1,2,0,1,1,0,0,3,6,1,7,2,2,2,1,0,38083.29028,46743.09674,13,13
94362,1,79,3,2,2,0,1,1,0,0,4,1,1,3,1,4,2,1,2,25253.44631,28317.26325,9,9
94363,2,73,3,0,2,0,1,1,0,0,4,5,1,1,2,4,2,3,0,15831.01126,0,8,8
94364,2,19,3,2,2,0,1,1,0,13,0,0,1,3,2,3,1,2,0,28366.71252,29157.81066,5,5
94365,1,22,4,2,2,0,1,1,0,0,4,6,1,7,1,2,2,1,1,23223.85201,23489.4643,2,2
94366,1,25,6,2,2,0,1,1,0,0,5,6,1,2,2,2,3,1,0,14649.47116,19557.05626,10,4
94367,2,9,4,2,0,0,1,1,0,2,0,0,1,4,1,2,1,1,1,6754.336898,8071.261918,9,9
94368,2,33,3,2,2,0,1,1,0,0,4,1,1,2,1,2,3,1,2,240778.9902,249636.7712,14,14
94369,1,2,4,1,0,0,1,1,0,0,0,0,1,7,2,3,2,2,0,4444.703688,4466.540239,10,10
94370,1,0,1,1,0,0,1,1,0,0,0,0,2,4,2,2,3,1,2,6238.422929,7999.484681,5,5
94371,2,10,1,2,0,0,1,1,0,3,0,0,2,3,2,3,1,2,0,20131.19311,20294.63674,14,14
94372,1,68,4,2,2,0,1,1,0,0,5,1,1,3,1,4,3,1,3,4869.293891,5168.129019,14,14
94373,2,80,3,2,2,0,1,1,0,0,2,2,1,2,1,4,2,3,0,21571.63708,24954.31451,6,6
94374,2,52,1,1,2,0,2,1,7,0,4,3,1,1,2,3,2,2,0,34909.82949,34763.90257,6,6
94375,2,30,7,1,2,0,1,1,0,0,4,1,1,3,1,2,2,1,2,20817.57394,23621.93241,10,10
94376,1,66,4,1,1,1,2,2,9,0,4,3,1,7,2,2,2,1,2,6861.95842,7003.434508,15,15
94377,1,33,3,2,2,0,1,1,0,0,4,5,1,4,1,2,2,3,0,37899.69879,38734.49601,8,6
94378,1,13,6,1,0,0,1,1,0,7,0,0,1,7,1,3,1,1,0,5796.698312,5843.437579,14,14
94379,2,24,3,2,2,0,1,1,0,0,3,1,1,5,2,2,2,1,2,10875.42052,11966.43286,14,14
94380,1,63,4,1,2,0,1,1,0,0,3,5,1,3,1,4,1,1,0,8274.480688,8615.303615,1,1
94381,2,80,4,1,2,0,1,1,0,0,4,2,1,2,2,4,2,2,0,20618.90175,21435.51412,15,15
94382,2,32,3,2,2,0,1,1,0,0,4,5,1,1,2,2,2,3,0,95190.91686,92610.22624,3,3
94383,2,4,1,1,0,0,1,1,0,0,0,0,1,5,1,2,2,1,2,38857.8513,38219.10277,14,14
94384,2,0,3,2,0,0,1,1,0,0,0,0,1,3,2,3,3,1,0,20700.54746,20008.74508,14,14
94385,2,48,6,1,2,0,2,2,3,0,1,1,1,3,1,3,2,1,1,14719.79742,15906.63161,8,8
94386,2,71,3,2,2,0,1,1,0,0,4,2,1,2,2,4,2,2,0,27297.06272,30665.65174,6,5
94387,2,39,4,2,2,0,1,1,0,0,3,5,1,1,2,2,2,3,0,36600.91933,39705.73003,8,8
94388,2,33,4,1,1,1,1,1,0,0,4,1,1,5,2,2,2,1,3,15257.63564,15974.63762,5,5
94389,1,4,3,1,0,0,1,1,0,0,0,0,1,4,1,3,2,1,2,31654.82344,33087.27883,7,7
94390,2,72,6,2,2,0,2,1,6,0,5,1,1,2,1,4,3,1,3,7919.45672,9055.29016,4,4
94391,1,1,3,2,0,0,1,1,0,0,0,0,1,4,1,2,3,1,3,18395.80534,21447.58357,15,15
94392,1,25,4,1,2,0,1,1,0,0,4,5,1,3,1,3,3,2,0,31174.52901,39919.89547,10,10
94393,1,36,2,2,2,0,2,1,5,0,3,6,2,6,1,2,2,1,2,57606.14302,61496.31782,13,13
94394,2,18,7,1,2,0,1,1,0,15,0,0,1,4,2,2,2,3,0,15419.42503,16105.35431,5,5
94395,1,19,3,1,2,0,1,1,0,13,0,0,1,3,2,3,2,1,1,31691.4264,31363.4866,5,5
94396,2,15,4,1,0,0,1,1,0,8,0,0,1,7,2,3,2,3,0,11100.7483,11719.205,6,6
94397,1,0,4,2,0,0,1,1,0,0,0,0,1,3,1,1,2,0,0,5663.325452,6177.903499,99,99
94398,2,39,4,2,2,0,1,1,0,0,2,5,1,4,2,2,1,3,0,29877.79293,29472.8001,5,5
94399,2,62,2,1,2,0,1,1,0,0,4,1,1,3,1,4,2,1,2,15156.73709,16101.4167,9,9
94400,2,6,3,2,0,0,1,1,0,0,0,0,1,4,2,2,3,2,0,23813.85211,27048.15152,4,4
94401,1,57,3,2,2,0,1,1,0,0,4,1,1,3,2,3,2,1,2,225382.4806,237630.1396,10,10
94402,1,10,3,2,0,0,1,1,0,3,0,0,1,6,1,3,2,1,2,23931.5106,25727.85492,10,8
94403,2,7,3,2,0,0,1,1,0,1,0,0,1,7,1,2,2,1,2,24006.83615,26240.59487,6,6
94404,2,80,3,2,2,0,1,1,0,0,3,2,1,1,2,4,2,2,0,40212.91256,43280.63095,6,6
94405,2,39,3,2,2,0,1,1,0,0,2,2,1,2,2,2,1,2,0,46371.19323,54715.9648,0,2
94406,2,34,4,1,2,0,1,1,0,0,4,1,1,5,1,2,2,1,2,31274.25646,30697.82641,99,99
94407,2,76,3,1,2,0,1,1,0,0,5,1,1,2,1,4,2,1,3,125808.4884,146291.1632,15,15
94408,1,72,3,1,2,0,1,1,0,0,4,1,1,2,2,4,2,1,2,35935.41091,38126.21908,7,7
94409,1,23,2,1,2,0,1,1,0,0,2,5,1,7,2,3,2,1,1,17258.10779,18017.17512,4,4
94410,2,80,4,2,2,0,1,1,0,0,4,2,1,1,2,4,2,2,0,14047.47575,13735.40173,13,13
94411,1,13,4,1,0,0,1,1,0,6,0,0,1,3,2,3,3,3,0,22122.80736,23521.84387,8,8
94412,1,80,1,2,2,0,2,2,2,0,1,1,2,2,1,4,1,1,1,13268.45045,16330.12719,3,3
94413,1,16,7,1,0,0,1,1,0,10,0,0,1,3,2,3,2,2,0,6107.536889,6111.620286,2,2
94414,1,32,4,1,2,0,1,1,0,0,2,5,1,3,2,3,1,3,0,19359.35581,21115.13836,1,1
94415,1,37,2,1,2,0,2,2,5,0,4,6,1,3,2,2,2,1,0,56097.86925,55655.80707,6,6
94416,2,28,3,2,2,0,1,1,0,0,3,6,1,3,2,2,2,1,0,89825.86957,88807.91787,7,7
94417,2,3,3,2,0,0,1,1,0,0,0,0,1,6,1,2,2,1,1,26705.69716,35316.13999,6,6
94418,2,76,3,2,2,0,1,1,0,0,3,1,1,2,1,4,2,1,2,178011.7007,203108.1144,7,7
94419,2,10,4,1,0,0,1,1,0,4,0,0,1,3,2,2,2,3,0,15233.34425,15876.78977,4,4
94420,2,80,3,1,2,0,1,1,0,0,2,3,1,1,2,4,1,2,0,22944.37951,25457.67118,4,4
94421,2,75,6,1,2,0,2,2,3,0,3,4,1,6,1,2,3,1,3,13742.92525,13865.18802,15,15
94422,2,2,3,1,0,0,1,1,0,0,0,0,1,4,2,3,2,2,0,12771.45253,14095.62186,3,3
94423,1,18,6,1,2,0,2,2,2,66,0,0,1,6,1,4,1,1,1,9986.806641,10011.39661,3,3
94424,2,75,4,1,2,0,1,1,0,0,5,2,1,1,2,4,3,2,0,12896.84611,13916.74273,0,0
94425,2,75,3,2,2,0,1,1,0,0,4,1,1,2,1,4,2,1,2,65115.39876,72984.86078,8,8
94426,2,0,1,2,0,0,1,1,0,0,0,0,1,6,1,2,2,1,2,9635.393153,9008.141493,10,10
94427,2,49,6,2,2,0,2,1,5,0,5,1,1,5,1,3,0,1,3,13216.33448,16379.83944,9,9
94428,1,60,2,1,2,0,2,2,8,0,4,4,2,1,1,4,2,2,0,11614.65099,12551.81861,5,5
94429,1,61,4,2,2,0,1,1,0,0,5,1,1,3,2,4,3,1,3,17318.79105,18607.51324,15,15
94430,2,25,7,1,2,0,1,1,0,0,4,5,1,3,2,3,3,3,0,24619.77431,25892.35457,8,8
94431,1,47,3,1,2,0,1,1,0,0,4,1,1,5,2,3,2,1,2,13313.53132,13185.56464,14,14
94432,2,71,1,2,2,0,1,1,0,0,4,2,1,1,2,4,2,2,0,18201.52329,19083.87299,8,8
94433,1,46,4,1,2,0,1,1,0,0,2,1,1,5,2,4,3,2,0,39339.71111,37751.53515,6,6
94434,2,26,6,1,2,0,2,2,2,0,4,1,1,2,1,2,3,1,2,16332.88369,17837.89498,7,7
94435,1,1,4,2,0,0,1,1,0,0,0,0,1,3,2,2,2,3,0,8904.008351,9390.084647,8,8
94436,2,31,4,1,2,0,1,1,0,0,2,6,1,2,2,2,1,1,0,24008.91382,25807.40355,5,3
94437,1,1,4,1,0,0,1,1,0,0,0,0,1,4,1,3,2,1,1,10929.32129,12112.82035,4,4
94438,1,80,2,2,2,0,2,1,9,0,5,3,1,1,1,4,3,2,0,35582.57732,38606.00713,7,7
94439,2,7,6,2,0,0,2,1,2,1,0,0,1,7,2,2,2,1,3,2971.568814,3052.657625,10,10
94440,2,0,7,1,0,0,1,1,0,0,0,0,1,5,2,2,2,1,2,8427.886055,8273.831396,15,15
94441,1,12,7,1,0,0,1,1,0,5,0,0,1,4,2,2,2,1,2,22321.33945,22962.99849,12,12
94442,1,60,3,0,2,0,1,1,0,0,4,6,1,2,1,4,2,1,0,52331.36512,0,7,5
94443,1,32,1,2,2,0,1,1,0,0,2,1,1,4,2,2,2,1,1,42110.00149,46684.26803,9,9
94444,2,78,4,1,2,0,1,1,0,0,1,2,1,3,2,3,2,2,0,26700.39261,27701.06444,7,7
94445,1,53,3,2,1,2,1,1,0,0,3,1,1,4,1,3,2,1,2,15443.41817,15800.29064,9,9
94446,2,28,2,1,2,0,2,2,5,0,2,6,1,7,1,2,1,1,1,26133.21627,26412.2512,6,6
94447,1,15,4,1,0,0,1,1,0,7,0,0,1,6,2,3,2,3,0,20700.34775,21759.07862,6,6
94448,1,41,3,2,2,0,1,1,0,0,3,1,1,5,1,3,2,1,2,143070.3249,140448.624,14,14
94449,1,1,3,2,0,0,1,1,0,0,0,0,1,3,2,2,2,1,0,13574.98049,15105.17268,6,6
94450,1,30,1,1,2,0,1,1,0,0,3,5,1,5,1,2,2,3,0,69523.4362,71155.45175,7,7
94451,2,4,3,2,0,0,1,1,0,0,0,0,1,4,2,2,3,2,0,25293.67694,26264.22926,4,4
94452,2,58,3,0,2,0,1,1,0,0,2,3,1,6,2,3,1,2,0,118052.9975,0,77,77
94453,2,20,3,2,2,0,1,1,0,0,4,5,1,6,1,3,2,1,2,75660.94812,76619.69457,10,5
94454,1,1,2,2,0,0,1,1,0,0,0,0,1,3,1,2,2,1,3,19537.31879,26592.79751,10,10
94455,2,10,1,1,0,0,1,1,0,4,0,0,1,4,1,3,3,1,3,39067.0251,40162.70539,15,15
94456,2,16,3,2,0,0,1,1,0,11,0,0,1,4,2,3,2,1,2,15717.14551,15360.55418,7,7
94457,2,46,3,1,2,0,1,1,0,0,5,5,1,3,2,3,3,3,0,283452.9171,306375.5811,15,15
94458,1,56,6,2,2,0,2,1,7,0,5,1,1,4,2,3,3,1,3,11018.40087,11218.06879,15,15
94459,2,52,4,2,2,0,1,1,0,0,2,3,1,2,2,3,1,2,0,32196.41983,32638.66081,4,4
94460,2,61,4,2,2,0,1,1,0,0,5,1,1,2,1,4,3,1,3,6841.04959,7350.023852,15,15
94461,2,19,1,2,2,0,2,2,5,15,0,0,1,3,2,1,2,0,0,40402.10255,48998.16483,5,3
94462,2,12,2,1,0,0,1,1,0,5,0,0,1,7,2,3,3,1,3,35183.68686,36714.32718,15,15
94463,2,26,4,2,2,0,1,1,0,0,3,5,1,3,2,2,2,3,0,36824.18015,41051.87568,13,13
94464,1,77,3,1,1,2,1,1,0,0,5,1,1,2,2,4,3,1,3,79764.73783,85415.04173,15,15
94465,1,31,7,1,2,0,2,1,1,0,2,5,1,1,1,2,1,3,0,26074.59559,26821.11157,8,8
94466,1,1,6,2,0,0,1,1,0,0,0,0,1,3,1,2,3,1,3,12012.20885,16172.58946,15,15
94467,2,18,6,1,2,0,2,2,3,13,0,0,1,3,1,3,2,1,2,12241.25864,14483.63673,4,4
94468,2,0,4,1,0,0,1,1,0,0,0,0,1,6,2,2,2,3,0,8472.453328,10383.74616,13,13
94469,2,37,7,2,2,0,1,1,0,0,5,1,1,4,2,2,3,1,2,73181.31298,73794.54171,15,15
94470,1,64,3,1,2,0,1,1,0,0,2,6,1,4,2,4,1,1,0,138831.9435,138200.6961,77,13
94471,2,42,2,1,2,0,2,2,5,0,1,1,2,7,2,3,1,1,0,46859.18803,47197.73167,99,99
94472,2,5,7,1,0,0,1,1,0,0,0,0,1,4,1,2,2,2,0,18784.79086,21121.08434,5,5
94473,2,73,3,1,2,0,1,1,0,0,5,3,1,3,2,4,3,2,0,115282.3029,132837.6189,7,7
94474,1,55,3,2,1,2,1,1,0,0,3,1,1,3,2,3,2,1,2,170880.7654,174829.5441,14,14
94475,2,26,1,1,2,0,1,1,0,0,3,5,2,5,2,3,1,1,2,39351.92722,47325.27818,14,14
94476,2,55,3,1,2,0,1,1,0,0,5,1,1,5,2,3,3,1,0,371357.277,364958.3788,12,12
94477,2,58,4,2,2,0,1,1,0,0,3,1,1,3,1,3,2,1,2,27711.18861,27705.3736,14,14
94478,2,37,4,1,2,0,2,2,2,0,4,5,1,1,2,2,2,3,0,27749.89014,28634.19878,3,3
94479,2,64,3,1,2,0,1,1,0,0,3,2,1,1,2,4,2,2,0,32706.6478,31060.85688,3,3
94480,1,6,1,1,0,0,1,1,0,0,0,0,2,7,1,3,0,1,1,21761.42277,22524.27522,5,5
94481,2,31,7,2,2,0,2,1,7,0,2,5,1,5,2,4,2,2,0,25141.52589,24190.80295,8,8
94482,2,13,4,2,0,0,1,1,0,6,0,0,1,7,2,3,0,1,2,8913.438255,8970.298993,0,0
94483,2,74,7,1,2,0,1,1,0,0,4,1,1,2,2,4,2,1,3,18636.48367,20766.13711,15,15
94484,1,5,4,1,0,0,1,1,0,0,0,0,1,4,2,2,2,1,0,7903.928618,7951.279165,7,7
94485,2,0,7,2,0,0,1,1,0,0,0,0,1,3,1,2,2,1,2,9583.587296,10228.99722,6,6
94486,2,44,4,2,2,0,1,1,0,0,4,3,1,2,2,3,2,2,0,26253.43941,30162.35649,3,3
94487,1,29,4,1,2,0,1,1,0,0,4,5,1,2,2,4,3,2,0,17759.75791,18146.87649,4,4
94488,2,38,2,1,2,0,2,2,5,0,2,1,2,5,1,3,2,1,1,47440.15507,50323.40723,5,5
94489,2,4,1,1,0,0,1,1,0,0,0,0,1,5,1,2,2,1,2,24605.19375,26825.38088,7,7
94490,2,64,3,2,2,0,1,1,0,0,3,2,1,2,1,4,2,2,0,32173.73417,33260.22225,6,3
94491,2,19,4,1,2,0,1,1,0,13,0,0,1,5,2,2,1,2,0,16393.97907,16796.48672,6,6
94492,1,6,6,1,0,0,1,1,0,0,0,0,1,4,2,2,3,1,3,15270.89959,16002.63797,10,10
94493,1,63,1,1,2,0,2,1,8,0,2,1,2,2,2,4,1,1,1,8150.534031,8121.621078,7,7
94494,1,10,3,2,0,0,1,1,0,4,0,0,1,6,2,2,2,2,0,15250.63096,16486.97437,6,6
94495,2,4,7,1,0,0,1,1,0,0,0,0,1,5,1,2,2,1,3,15973.30706,14752.37885,15,15
94496,1,3,3,1,0,0,1,1,0,0,0,0,1,4,1,2,2,1,2,84383.55521,94587.37052,14,14
94497,1,45,7,2,2,0,1,1,0,0,3,5,1,2,1,3,2,3,0,30750.2001,30299.20396,2,2
94498,2,11,7,2,0,0,1,1,0,5,0,0,1,4,2,2,3,1,3,8620.57994,9053.50979,15,15
94499,1,62,4,1,2,0,1,1,0,0,3,1,1,2,1,4,2,1,2,13096.04146,14247.10243,7,7
94500,2,60,4,2,2,0,1,1,0,0,4,2,1,1,2,4,2,2,0,8053.50278,8377.400768,4,4
94501,2,41,6,2,2,0,2,1,7,0,4,1,1,5,2,4,1,2,0,30534.27408,32278.83158,15,15
94502,2,15,6,2,0,0,2,2,2,9,0,0,1,2,2,2,2,3,0,10471.96884,12048.48865,7,7
94503,2,52,4,1,2,0,1,1,0,0,3,3,1,2,2,4,2,2,0,51538.17276,52130.98492,7,7
94504,1,28,4,1,2,0,1,1,0,0,3,5,1,4,1,3,2,1,2,77496.60775,74893.19857,7,7
94505,1,7,1,2,0,0,1,1,0,1,0,0,2,4,2,2,1,2,0,16035.3269,16218.28335,2,2
94506,2,69,4,1,2,0,1,1,0,0,4,4,1,6,1,4,0,1,2,20695.46832,20432.32459,12,12
94507,1,34,4,1,2,0,1,1,0,0,3,1,1,5,1,2,2,1,2,22588.94153,23515.11509,7,7
94508,2,34,4,2,2,0,1,1,0,0,5,5,1,5,2,2,3,3,0,49728.61729,49290.78611,15,15
94509,2,53,3,2,2,0,1,1,0,0,5,5,1,1,2,3,3,3,0,15654.80025,15734.37039,9,9
94510,2,49,3,1,2,0,1,1,0,0,3,1,1,4,1,3,2,1,2,183489.7969,203543.1968,15,15
94511,1,7,4,1,0,0,1,1,0,0,0,0,1,2,2,2,2,1,0,8688.205387,9633.633972,6,6
94512,2,43,1,1,2,0,2,2,5,0,2,1,1,5,1,3,1,1,1,13568.62205,13073.88957,7,7
94513,1,2,3,1,0,0,1,1,0,0,0,0,1,3,1,3,2,1,2,21497.39342,24763.98588,14,14
94514,2,8,6,1,0,0,1,1,0,2,0,0,1,5,2,2,0,1,0,16847.69495,22249.3486,0,0
94515,2,58,2,2,2,0,2,2,6,0,1,1,2,2,1,3,1,1,0,10957.67126,10558.138,6,6
94516,2,19,4,1,2,0,1,1,0,13,0,0,1,1,2,1,2,0,0,14293.9083,15090.26573,1,1
94517,1,19,6,1,2,0,1,1,0,13,0,0,1,3,1,1,2,0,0,10456.32183,12129.80529,8,8
94518,2,0,3,2,0,0,1,1,0,0,0,0,1,7,2,2,3,1,3,5471.038719,5119.218979,7,7
94519,1,59,3,1,2,0,2,1,7,0,5,1,1,3,1,3,3,1,2,373660.7885,379744.4477,14,14
94520,1,7,1,2,0,0,1,1,0,1,0,0,2,4,1,2,1,1,2,17884.91225,18545.05446,7,7
